Country ISO Code,Country Name,Power Plant Name,Capacity (MW),Latitude,Longitude,Fuel,Estimated Annual Generation (GWh)
AUS,Australia,Plutonic Gold Mine,28,-25.311,119.4508,Gas,72.7372759
AFG,Afghanistan,Kajaki Hydroelectric Power Plant Afghanistan,33,32.322,65.119,Hydro,
AUS,Australia,Poatina,300,-41.8116,146.919,Hydro,679.8754983
AFG,Afghanistan,Mahipar Hydroelectric Power Plant Afghanistan,66,34.556,69.4787,Hydro,
AFG,Afghanistan,Naghlu Dam Hydroelectric Power Plant Afghanistan,100,34.641,69.717,Hydro,
AUS,Australia,Port Hedland,84,-20.3782,118.5384,Gas,218.2118277
AFG,Afghanistan,Nangarhar (Darunta) Hydroelectric Power Plant Afghanistan,11.55,34.4847,70.3633,Hydro,
AUS,Australia,Port Hedland,126,-20.4283,118.5498,Gas,327.3177416
AFG,Afghanistan,Northwest Kabul Power Plant Afghanistan,42,34.5638,69.1134,Gas,
AUS,Australia,Port Lincoln,73.5,-34.7002,135.8047,Oil,358.3953427
AFG,Afghanistan,Pul-e-Khumri Hydroelectric Power Plant Afghanistan,6,35.9416,68.71,Hydro,
AUS,Australia,Port Stanvac,57.6,-35.1104,138.4915,Oil,280.8649216
AFG,Afghanistan,Sarobi Dam Hydroelectric Power Plant Afghanistan,22,34.5865,69.7757,Hydro,
AUS,Australia,Proserpine Sugar Mill,17,-20.3985,148.5797,Biomass,124.8682008
ALB,Albania,Bistrica 1,27,39.9116,20.1047,Hydro,89.13207547
AUS,Australia,Quarantine,224,-34.7793,138.5224,Gas,581.8982072
ALB,Albania,Fierza,500,42.2514,20.0431,Hydro,1650.59399
ARG,Argentina,EL TIGRE,14.4,-34.61,-68.6136,Hydro,59.54284674
AUS,Australia,Ravensthorpe,56,-33.61,120.36,Oil,273.0631183
AUS,Australia,Red Hill,3.65,-31.8317,116.0992,Waste,0
AUS,Australia,Redbank,143.8,-32.5802,151.0719,Coal,707.0565558
AUS,Australia,Reece,238,-41.7238,145.1359,Hydro,539.3678953
AUS,Australia,Remount,2.2,-41.395,147.1554,Waste,0
AUS,Australia,Repulse,28,-42.5077,146.647,Hydro,63.4550465
AUS,Australia,Revesby Workers Club,2.5,-33.9534,151.0137,Oil,12.19031778
AUS,Australia,Rochedale,4.2,-27.5591,153.1236,Waste,0
AUS,Australia,Rockingham,2.1,-32.2863,115.8154,Waste,0
AUS,Australia,Rocky Point Sugar Sugar Mill,30,-27.7334,153.3276,Biomass,220.3556485
AUS,Australia,Roghan Road,1,-27.3388,153.0344,Waste,0
AUS,Australia,Roma,80,-26.5772,148.8402,Gas,207.8207883
AUS,Australia,Ron Goodin,59.6,-23.7091,133.8912,Gas,154.8264873
AUS,Australia,Rowallan,10.5,-41.7295,146.2176,Hydro,23.79564244
AUS,Australia,Rubicon,9.6,-37.3272,145.8605,Hydro,21.75601594
AUS,Australia,Savannah Nickel Mine,10.8,-17.3631,128.0331,Oil,52.66217281
AUS,Australia,Shenton Park WMRC Project,1,-31.9577,115.7924,Waste,0
AUS,Australia,Shepparton Biogas Generation Plant,1.1,-36.3218,145.379,Waste,0
AUS,Australia,Smithfield Energy,170.9,-33.85,150.9495,Gas,443.957159
AUS,Australia,Snowtown Wind Farm Stage 1,98.7,-33.7215,138.1471,Wind,237.8984243
AUS,Australia,Snowtown Wind Farm Stage 2,98.7,-33.8301,138.1184,Wind,237.8984243
AUS,Australia,Snuggery,63,-37.6646,140.4156,Gas,163.6588708
AUS,Australia,Solomon Iron Ore Mine,125,-22.1581,117.9849,Gas,324.7199817
AUS,Australia,Somerton,160,-37.6318,144.9531,Gas,415.6415766
AUS,Australia,South Cardup (Shale Road Landfill),3.3,-32.2664,116.0193,Waste,0
AUS,Australia,South Johnstone,20,-17.6057,145.991,Biomass,146.9037657
AUS,Australia,Springvale,4.12,-37.9733,145.1396,Waste,0
AUS,Australia,St George Leagues Club,1.5,-33.9748,151.1294,Oil,7.314190668
AUS,Australia,Stanwell,1460,-23.5097,150.3195,Coal,7178.738327
AUS,Australia,Stapylton Green Energy,4.8,-27.7334,153.2463,Biomass,35.25690377
AUS,Australia,Starfish Hill Wind Farm,34.5,-35.5678,138.1432,Wind,83.15598418
AUS,Australia,Studland Bay (Woolnorth) Wind Farm,75,-40.7788,144.7362,Wind,180.7738787
AUS,Australia,Summerhill,2.2,-32.8885,151.643,Waste,0
AUS,Australia,Suncoast Gold Macadamia,1.5,-26.2261,152.6981,Biomass,11.01778243
AUS,Australia,Sunrise Dam,28.4,-29.0927,122.4393,Gas,73.77637984
AUS,Australia,Swanbank B,480,-27.6601,152.8145,Coal,2360.133149
AUS,Australia,Swanbank E,385,-27.6554,152.8179,Gas,1000.137544
AUS,Australia,Symex Port Melbourne,5.9,-37.8298,144.9444,Gas,15.32678314
AUS,Australia,Tableland,7,-17.1193,145.345,Biomass,51.41631799
AUS,Australia,Tahmoor,7,-34.2482,150.5808,Gas,18.18431898
AUS,Australia,Tallawarra,420,-34.5228,150.8081,Gas,1091.059139
AUS,Australia,Tamala Park,4.65,-31.7078,115.7266,Waste,0
AUS,Australia,Tamar Valley,390,-41.1401,146.9036,Gas,1013.126343
AUS,Australia,Tarong,15,-26.7858,151.9172,Oil,73.14190668
AUS,Australia,Tarong,1400,-26.7824,151.9153,Coal,6883.721683
AUS,Australia,Tarong North,450,-26.7758,151.9146,Coal,2212.624827
AUS,Australia,Tarraleah,90,-42.3012,146.4572,Hydro,203.9626495
AUS,Australia,Tatura Biogas Generation Plant,1.1,-36.4793,145.235,Waste,0
AUS,Australia,Tea Tree Gully,1,-34.8303,138.7129,Waste,0
AUS,Australia,Telfer Gold Mine,159,-21.7129,122.2091,Gas,413.0438167
AUS,Australia,Tennant Creek,18.2,-19.6549,134.1753,Gas,47.27922934
AUS,Australia,Teralba,4,-32.9455,151.6119,Gas,10.39103941
AUS,Australia,Terminal Storage,2.5,-34.8393,138.7112,Hydro,5.665629152
AUS,Australia,The Drop,2.5,-35.6043,145.7837,Hydro,5.665629152
AUS,Australia,Ti Tree Bioenergy,3.3,-27.6802,152.6593,Waste,0
AUS,Australia,Tods Corner,1.7,-41.9707,146.7938,Hydro,3.852627823
AUS,Australia,Tomago Aluminium Smelter,810,-32.8217,151.7178,Gas,2104.185481
AUS,Australia,Toora Wind Farm,21,-38.6451,146.3441,Wind,50.61668602
AUS,Australia,Torrens Island A,480,-34.8068,138.5213,Gas,1246.92473
AUS,Australia,Torrens Island B,800,-34.8052,138.5226,Gas,2078.207883
AUS,Australia,Tower Mine,41.2,-34.2207,150.7179,Gas,107.027706
AUS,Australia,Trevallyn,95.8,-41.4231,147.1128,Hydro,217.1069091
AUS,Australia,Tribute,84,-41.8118,145.6536,Hydro,190.3651395
AUS,Australia,Tully Sugar Mill,21.4,-17.9373,145.9267,Biomass,157.1870293
AUS,Australia,Tumut 1 (Upper Tumut),384,-35.9517,148.3637,Hydro,870.2406378
AUS,Australia,Tumut 2 (Upper Tumut),336,-35.8813,148.3673,Hydro,761.460558
AUS,Australia,Tumut 3,1500,-35.6112,148.2917,Hydro,3399.377491
AUS,Australia,Tungatinah,125,-42.2967,146.4565,Hydro,283.2814576
AUS,Australia,University of Queensland (St Lucia Campus) Solar Array,1.2,-27.495,153.0101,Solar,17.78021777
AUS,Australia,Upper Lake Margaret,8.4,-42.0046,145.5437,Hydro,19.03651395
AUS,Australia,Uranquinty,664,-35.1794,147.2157,Gas,1724.912543
AUS,Australia,Uterne Solar,1,-23.7685,133.8682,Solar,14.81684814
AUS,Australia,Vales Point B,1320,-33.1607,151.5431,Coal,6490.366159
AUS,Australia,Valley (Peaking Facility),300,-38.2536,146.5892,Gas,779.3279561
AUS,Australia,Victoria Sugar Mill,24,-18.6508,146.2016,Biomass,176.2845188
AUS,Australia,Visy Paper Gibson Island,2,-27.4405,153.1158,Biomass,14.69037657
AUS,Australia,Wagerup,380,-32.916,115.9186,Gas,987.1487444
AUS,Australia,Wagerup Bauxite Mine and Alumina Refinery,98,-32.9145,115.917,Gas,254.5804657
AUS,Australia,Walkaway Wind Farm,89.1,-28.9229,114.9282,Wind,214.7593678
AUS,Australia,Wallerawang C,1000,-33.4028,150.0833,Coal,4916.944059
AUS,Australia,Warmun,1.3,-17.0259,128.2113,Oil,6.338965246
AUS,Australia,Warragamba,50,-33.8832,150.5965,Hydro,113.312583
AUS,Australia,Warrego,19,-19.4434,133.8236,Gas,49.35743722
AUS,Australia,Waterloo Wind Farm,111,-34.0004,138.9153,Wind,267.5453404
AUS,Australia,Wattle Point Wind Farm,90.75,-35.1214,137.7166,Wind,218.7363932
AUS,Australia,Waubra Wind Farm,192,-37.356,143.6059,Wind,462.7811294
AUS,Australia,Wayatinah,38.3,-42.4272,146.5347,Hydro,86.79743861
AUS,Australia,Weddell,86,-12.5772,130.9502,Gas,223.4073474
AUS,Australia,West Angelas Mine,86,-23.1546,118.7245,Gas,223.4073474
AUS,Australia,West Illawarra Leagues Club,1,-34.4515,150.8429,Oil,4.876127112
AUS,Australia,West Kalgoorlie,60,-30.7806,121.4234,Oil,292.5676267
AUS,Australia,West Kiewa (Mount Beauty Hydro Scheme),60,-36.7601,147.186,Hydro,135.9750997
AUS,Australia,Lake Bonney Wind Farm,159,-37.7713,140.3981,Wind,383.2406228
ARG,Argentina,CENTRAL TERMICA DE CICLO COMBINADO SALTA,643,-24.7456,-65.0513,Gas,0
AUS,Australia,West Nowra (Shoalhaven),1,-34.882,150.5515,Waste,0
ARG,Argentina,EL TUNAL,11,-25.2323,-64.4762,Hydro,45.48411904
ARG,Argentina,EMBALSE,648,-32.2316,-64.4422,Nuclear,2115.648327
AUS,Australia,Lake Echo,32,-42.2537,146.6207,Hydro,72.52005315
ARG,Argentina,ESCABA,24,-27.6589,-65.7633,Hydro,99.2380779
AUS,Australia,Lake Glenmaggie,3.8,-37.9047,146.8011,Hydro,8.611756311
ALB,Albania,Koman,600,42.1033,19.8224,Hydro,1980.712788
ARG,Argentina,ESQUINA,2.215,-30.0102,-59.5321,Oil,31.02367646
ARG,Argentina,EX CENTRAL BUENOS AIRES,321,-34.627,-58.3382,Gas,0
ARG,Argentina,FILO MORADO,67.5,-37.2742,-69.652,Gas,1138.241588
ARG,Argentina,FITZ SIMON,10.8,-32.1784,-64.4207,Hydro,44.65713506
ARG,Argentina,FLORENTINO AMEGHINO,60,-43.6996,-66.4815,Hydro,248.0951948
ARG,Argentina,FUTALEUFU,472,-43.1288,-71.63,Hydro,1951.682199
ARG,Argentina,GENERACION FRIAS SA,60,-28.6072,-65.1228,Gas,1011.7703
ARG,Argentina,GENERAL ACHA,1.8,-37.4309,-64.716,Wind,6.267289898
ARG,Argentina,GENERAL LEVALLE,72.78,-34.0364,-63.9217,Oil,1019.369378
ARG,Argentina,GENERAL SAN MARTIN,6,-33.0449,-68.9219,Hydro,24.80951948
ARG,Argentina,CENTRAL TERMICA GÜEMES SA,361,-24.6894,-65.0425,Coal,207.4594536
AUS,Australia,Western Suburbs Leagues Club (Campbelltown),1.3,-34.0513,150.8329,Oil,6.338965246
ARG,Argentina,GOYA,1.33,-29.1388,-59.2277,Oil,18.62821205
ARG,Argentina,GOYA (ELECTROPATAGONIA SA),17.3,-29.1388,-59.2277,Gas,291.7271032
ARG,Argentina,GUILLERMO CESPEDES,5.2,-39.56,-65.6817,Hydro,21.50158355
ARG,Argentina,H. PICHI PICUN LEUFU,285,-40.012,-69.9918,Hydro,1178.452175
ARG,Argentina,ISLA VERDE,3.115,-33.2422,-62.3946,Oil,43.62923348
ARG,Argentina,ITA IBATE,1.052,-27.4252,-57.3341,Oil,14.73449554
ARG,Argentina,ITUZAINGO,1.33,-27.5785,-56.6726,Oil,18.62821205
ARG,Argentina,JULIAN  ROMERO,6.2,-38.8367,-68.038,Hydro,25.63650346
ARG,Argentina,LA CRUZ,1.33,-29.1762,-56.6394,Oil,18.62821205
ARG,Argentina,LA PLATA COGENERACION,128,-34.889,-57.9206,Gas,2158.443307
ARG,Argentina,LA RIOJA,42,-29.3823,-66.8325,Oil,588.2593278
ARG,Argentina,LA TABLADA,22.15,-27.4184,-55.9097,Gas,373.5118692
ARG,Argentina,LA VIÑA,16,-31.8708,-65.0349,Hydro,66.1587186
ARG,Argentina,LAS MADERAS,30,-24.4438,-65.2203,Hydro,124.0475974
ARG,Argentina,LOS CORONELES (EX 25  DE MAYO),6.6,-34.6,-68.5285,Hydro,27.29047142
ARG,Argentina,LOS MOLINOS I,59.04,-31.838,-64.4452,Hydro,244.1256716
ARG,Argentina,LOS MOLINOS II,4.5,-31.838,-64.4452,Hydro,18.60713961
ARG,Argentina,LOS QUIROGA,2.5,-27.6509,-64.3618,Hydro,10.33729978
ARG,Argentina,LOS REYUNOS,224,-34.6028,-68.6383,Hydro,926.2220604
ARG,Argentina,LUJAN DE CUYO,31.7,-33.0551,-68.981,Other,0
ARG,Argentina,LUJAN DE CUYO,90,-33.0551,-68.981,Other,0
ARG,Argentina,LUJAN DE CUYO,50.46,-33.0551,-68.981,Gas,850.8988225
ARG,Argentina,LUJAN DE CUYO,120,-33.0551,-68.981,Coal,68.96159123
ARG,Argentina,LUJAN DE CUYO,57.6,-33.0551,-68.981,Gas,971.2994882
ARG,Argentina,LUJAN DE CUYO,200,-33.0551,-68.981,Gas,3372.567667
ARG,Argentina,MAR DE AJO,34,-36.7208,-63.1977,Gas,573.3365034
ARG,Argentina,MAR DEL PLATA (9 DE JULIO),201.3,-38.0495,-57.546,Coal,115.6830693
ARG,Argentina,MAYOR BURATOVICH,2.02,-39.2291,-62.6497,Oil,28.29247243
ARG,Argentina,MBURUCUYA,1.035,-28.0441,-58.2285,Oil,14.49639058
ARG,Argentina,MERCEDES,2.308,-29.1808,-58.0793,Oil,32.32625068
ARG,Argentina,MODESTO MARANZANA,250,-33.1608,-64.3656,Gas,0
ARG,Argentina,NECOCHEA,206,-38.5785,-58.7108,Coal,118.3840649
ARG,Argentina,NIHUIL I,74.24,-34.9907,-68.6237,Hydro,306.9764543
ARG,Argentina,NIHUIL II,133.12,-34.9039,-68.6177,Hydro,550.4405388
ARG,Argentina,NIHUIL III,52,-34.8821,-68.576,Hydro,215.0158355
ARG,Argentina,NIHUIL IV,22.4,-34.833,-68.5168,Hydro,92.62220604
ARG,Argentina,NUEVA ESPERANZA,3.38,-26.2072,-64.2477,Oil,47.34086972
ARG,Argentina,NUEVO PUERTO,1217.7,-34.5721,-58.3835,Coal,699.787747
ARG,Argentina,OBERA (TG Nº21 FIAT ),17.2,-27.5019,-55.1245,Gas,290.0408194
ARG,Argentina,ORENSE,1.72,-38.6851,-59.7804,Oil,24.09062009
ARG,Argentina,PARANA,845.26,-33.3549,-60.1718,Gas,0
ARG,Argentina,PARQUE EOLICO ARAUCO SAPEM I,25.2,-28.6684,-66.7524,Wind,87.74205857
ARG,Argentina,PARQUE EOLICO ARAUCO SAPEM II,25.2,-28.6684,-66.7524,Wind,87.74205857
ARG,Argentina,PARQUE EOLICO DIADEMA,6.3,-45.7458,-67.6953,Wind,21.93551464
ARG,Argentina,PARQUE EOLICO EL TORDILLO,3,-45.8507,-67.9081,Wind,10.44548316
ARG,Argentina,PARQUE EOLICO LOMA BLANCA IV (ENARSA),50,-43.0907,-65.2298,Wind,174.0913861
ARG,Argentina,PARQUE EOLICO RAWSON I (ENARSA),48.6,-43.3522,-65.1734,Wind,169.2168272
ARG,Argentina,PARQUE EOLICO RAWSON II (ENARSA),28.8,-43.3522,-65.1734,Wind,100.2766384
ARG,Argentina,PASO DE LOS LIBRES,2.135,-29.7148,-57.0933,Oil,29.9031825
ARG,Argentina,PATAGONIA,123.7,-45.7934,-67.5145,Gas,0
ARG,Argentina,PERUGORRIA,1.11,-29.34,-58.6077,Oil,15.54685366
ARG,Argentina,PICO TRUNCADO - JORGE ROMANUTTI,2.4,-46.8065,-67.9808,Wind,8.356386531
ARG,Argentina,PICO TRUNCADO I,45.6,-46.7842,-67.9498,Gas,768.9454282
ARG,Argentina,PIEDRA DEL AGUILA (CPSA),1400,-31.6651,-63.8314,Hydro,5788.887878
ARG,Argentina,PIEDRAS MORAS,6.3,-32.1675,-64.2438,Hydro,26.04999545
ARG,Argentina,PILAR  BICENTENARIO,467,-31.6651,-63.8314,Gas,0
ARG,Argentina,PILAR ZANICHELLI,216,-31.6662,-63.8344,Coal,124.1308642
ARG,Argentina,PLANICIE BANDERITA,472,-28.5339,-65.7997,Hydro,1951.682199
ARG,Argentina,PLANTA PILOTO FOTOVOLTAICA SAN JUAN 1,1.2,-31.3891,-68.6752,Solar,6
ARG,Argentina,PRESIDENTE SARMIENTO,31.5,-31.5129,-68.5399,Gas,531.1794076
ARG,Argentina,PUEBLO VIEJO,19.2,-27.1149,-65.7523,Hydro,79.39046232
ARG,Argentina,PUERTO MADRYN,42,-42.7069,-65.1048,Gas,708.2392101
ARG,Argentina,PUERTO NUEVO,589,-34.5754,-58.3788,Coal,338.4864769
ARG,Argentina,PUNTA ALTA - CENTENARIO,1.8,-38.7833,-61.8984,Wind,6.267289898
ARG,Argentina,QUEBRADA DE ULLUM,45,-31.2567,-61.5203,Hydro,186.0713961
ARG,Argentina,RIO CORRALITO,13.2,-24.983,-65.686,Hydro,54.58094285
ARG,Argentina,RIO CUARTO,35.57,-33.1614,-64.3649,Oil,498.199626
ARG,Argentina,RIO GRANDE,750,-53.7862,-67.7222,Hydro,3101.189935
ARG,Argentina,RIO HONDO,19,-27.5225,-64.8861,Hydro,78.56347834
ARG,Argentina,SALTO ANDERSEN,7.9,-38.8244,-64.8296,Hydro,32.66586731
ARG,Argentina,SALTO GRANDE (MITAD ARGENTINA),945,-31.3891,-68.6752,Hydro,3907.499317
ARG,Argentina,SAN FRANCISCO,40,-31.4391,-62.1119,Gas,674.5135335
ARG,Argentina,SAN MARTIN DE LOS ANDES,4.218,-40.1511,-71.334,Oil,59.07804392
ARG,Argentina,SAN NICOLAS,644,-33.3562,-60.1729,Coal,370.0938729
ARG,Argentina,SAN PEDRO,2.216,-26.6253,-54.1102,Oil,31.03768263
ARG,Argentina,SAN ROQUE,26,-31.3533,-64.3938,Hydro,107.5079177
ARG,Argentina,SANTA ISABEL,2.25,-36.2314,-66.9381,Oil,31.51389256
ARG,Argentina,SANTO TOME,2.684,-28.5497,-56.0722,Oil,37.59257228
ARG,Argentina,SORRENTO,226,-32.9053,-60.6807,Coal,129.8776635
ARG,Argentina,SUDOESTE,140,-31.463,-64.2388,Gas,2360.797367
ARG,Argentina,TARTAGAL,17,-22.5099,-63.797,Oil,238.104966
ARG,Argentina,TENARIS SIDERCA CETE II,163.2,-33.3655,-60.1435,Gas,2752.015217
ARG,Argentina,TOSTADO,3.2,-29.2352,-61.7577,Oil,44.81975831
ARG,Argentina,ULLUM,42,-31.4557,-68.7556,Hydro,173.6666363
ARG,Argentina,URUGUA-I,120,-25.8766,-54.5687,Hydro,496.1903895
ARG,Argentina,VENADO TUERTO,9.1,-33.7777,-61.9555,Oil,127.4561877
AUS,Australia,Colongra,724,-33.2099,151.5448,Gas,1880.778134
ARG,Argentina,VILLA GESELL,130,-37.2487,-56.9973,Gas,2192.168984
AUS,Australia,Lake Keepit,6.5,-30.8792,150.4914,Hydro,14.7306358
ARG,Argentina,CENTRAL TERMICA LA BANDA,32,-27.7528,-64.2655,Gas,539.6108268
ARG,Argentina,VILLA MARIA (LAS PLAYAS),48,-39.0872,-67.0881,Gas,809.4162402
ARG,Argentina,CENTRAL TERMICA PIQUIRENDA SA,30.44,-22.3497,-63.7664,Oil,426.3479509
ARG,Argentina,VUELTA DE OBLIGADO,560,-32.5807,-60.7903,Coal,321.8207591
AUS,Australia,Whitwood Road,1.1,-27.659,152.8237,Waste,0
AUS,Australia,Lake William Hovell,1.8,-36.9132,146.3916,Hydro,4.07925299
AUS,Australia,Condamine A,144,-26.6682,150.27,Gas,374.0774189
ALB,Albania,Lanabregas,5,41.3428,19.8964,Hydro,16.5059399
ALB,Albania,Shkopet,24,41.6796,19.8305,Hydro,79.22851153
ARG,Argentina,CENTRAL TERMICA REMEDIOS DE ESCALADA,25,-34.7208,-58.3881,Oil,350.1543618
ARG,Argentina,YACYRETA,1550,-27.4827,-56.7397,Hydro,6409.125865
AUS,Australia,Wilga Park,16,-30.3634,149.6772,Gas,41.56415766
AUS,Australia,Landfill Management Services Shoal Bay,1.1,-12.3892,130.9254,Waste,0
AUS,Australia,Condong Sugar Mill,30,-28.3138,153.4341,Biomass,220.3556485
AUS,Australia,Laverton,1.5,-28.6216,122.3965,Oil,7.314190668
AUS,Australia,Copeton,20,-29.9102,150.9235,Hydro,45.32503322
AUS,Australia,Laverton (Granny Smith Gold Mine),30.6,-28.8096,122.415,Oil,149.2094896
ARM,Armenia,Armenian-2,375,40.1805,44.1498,Nuclear,2465
AUS,Australia,Wilmot,32,-41.4833,146.1251,Hydro,72.52005315
ARM,Armenia,Hrazadan,1110,40.564,44.7479,Gas,1890.62144
AUS,Australia,Coral Bay Diesel Backup,2.24,-23.1521,113.7762,Oil,10.92252473
AUS,Australia,Laverton North,312,-37.8416,144.7887,Gas,810.5010743
ARG,Argentina,CENTRAL TERMOELECTRICA GUILLERMO BROWN,524,-34.6268,-58.5438,Gas,8836.127288
ALB,Albania,Ulez,25,41.6796,19.8936,Hydro,82.52969951
AUS,Australia,Wilpena Solar Farm,145,-31.5234,138.6198,Solar,2148.44298
AUS,Australia,Leichhardt,60,-20.7833,139.4862,Gas,155.8655912
ARM,Armenia,New Yerevan,271,40.1152,44.4973,Gas,461.5841533
ALB,Albania,Vau i Dijes,250,42.0137,19.6359,Hydro,825.2969951
ARG,Argentina,CENTRAL TERMOELECTRICA MANUEL BELGRANO,868.2,-24.6894,-65.0425,Gas,0
AUS,Australia,Wiluna,1.3,-26.5922,120.2185,Oil,6.338965246
AUS,Australia,Corio,1,-38.0587,144.4056,Waste,0
ARM,Armenia,Sevan-Hrazdan Cascade,561,40.5078,44.7606,Hydro,1158.043523
ARG,Argentina,CENTRAL TERMOELECTRICA TIMBUES,865.14,-32.5778,-60.791,Gas,0
ALB,Albania,Vlora,98,40.4874,19.434,Other,0
AUS,Australia,Leinster Nickel Mine,59,-27.8141,120.699,Gas,153.2678314
AUS,Australia,Wiluna Gold Mine,21,-26.6316,120.2519,Gas,54.55295693
ARG,Argentina,CH LOS CARACOLES,121.4,-31.5192,-68.9814,Hydro,501.9792774
AUS,Australia,Crookwell Wind Farm,4.8,-34.5165,149.5425,Wind,11.56952823
ARM,Armenia,Shamb,170,39.4743,46.1306,Hydro,350.9222798
AUS,Australia,Windimurra Vanadium Mine,23.7,-28.2933,118.5371,Gas,61.56690853
AUS,Australia,Cullerin Range Wind Farm,30,-34.805,149.4001,Wind,72.30955146
AUS,Australia,Lemonthyme,54,-41.6038,146.139,Hydro,122.3775897
ARM,Armenia,Spandaryan,76,39.6494,45.85,Hydro,156.8829016
ARG,Argentina,CHILECITO,5,-29.1578,-67.5069,Oil,70.03087236
DZA,Algeria,Ain Djasser,520,35.8665,6.0262,Gas,2152.249819
AUS,Australia,Windy Hill Wind Farm,12,-17.5922,145.5306,Wind,28.92382059
ARM,Armenia,Tatev,158,39.3956,46.2578,Hydro,326.1512953
AUS,Australia,Leonards Hill,4.1,-37.4271,144.1222,Wind,9.882305367
DZA,Algeria,Annaba,71,36.8924,7.7634,Gas,293.8648791
ARM,Armenia,Yerevan,550,40.1138,44.5038,Gas,936.794407
AUS,Australia,Wingfield I,4.1,-34.8348,138.5572,Waste,0
AUS,Australia,Leonora,4.43,-28.8811,121.3213,Gas,11.50807615
DZA,Algeria,Arbaa,560,36.5988,3.1375,Gas,2317.807497
AUS,Australia,Adelaide Showgrounds,1,-34.9453,138.5882,Solar,14.81684814
AUS,Australia,Daandine,30,-27.0863,150.943,Gas,77.93279561
ARG,Argentina,CHIMBERA 1,2,-31.9881,-68.5402,Solar,10
ARG,Argentina,CIPOLLETTI,5.78,-38.9121,-67.9427,Hydro,23.8998371
ARG,Argentina,COMANDANTE ANDRESITO,2.372,-25.6669,-54.0419,Oil,33.22264585
AUS,Australia,Leonora (Murrin Murrin Nickel Mine),78,-28.9238,121.3293,Gas,202.6252686
AUS,Australia,Albany Wind Farm,21.6,-35.0641,117.7977,Wind,52.06287705
AUT,Austria,Rodundwerk II,295,47.0847,9.8744,Hydro,1457.684549
ARG,Argentina,COMODORO RIVADAVIA,78,-25.9913,-54.6278,Gas,1315.30139
AUT,Austria,Rosegg-St. James,80,46.5696,14.0268,Hydro,395.3042846
AUS,Australia,Wingfield II,4.1,-34.8321,138.5489,Waste,0
AUS,Australia,Amcor Gawler,4,-34.5509,138.7659,Oil,19.50450845
AUS,Australia,Liapootah,87.3,-42.3763,146.5099,Hydro,197.84377
ARG,Argentina,COMODORO RIVADAVIA,63.02,-25.9913,-54.6278,Gas,0
AUT,Austria,Rosenau,34,48.489,14.6288,Hydro,168.0043209
DZA,Algeria,Boufarik 1,100,36.5914,2.9223,Gas,413.8941959
AUS,Australia,Dampier,120,-20.648,116.7219,Gas,311.7311824
AUS,Australia,Liddell,2000,-32.3713,150.9776,Coal,9833.888119
AUT,Austria,Schonau,30,48.3946,14.7302,Hydro,148.2391067
DZA,Algeria,Boufarik 2,450,36.596,2.878,Gas,1862.523882
ARG,Argentina,COMODORO RIVADAVIA - ANTONIO MORAN,16.56,-45.8467,-67.4964,Wind,57.65906706
AUS,Australia,Wivenhoe,4.5,-27.3952,152.6092,Hydro,10.19813247
DZA,Algeria,Boutelilis,450,35.5658,-0.9386,Gas,1862.523882
AUT,Austria,Schwabeck,79,46.658,14.8726,Hydro,390.362981
AUS,Australia,Angaston,50,-34.5035,139.0245,Oil,243.8063556
AUS,Australia,Wivenhoe Hydroelectric,500,-27.3722,152.632,Hydro,1133.12583
AUT,Austria,Schwarzach,120,47.3152,13.1389,Hydro,592.9564268
AUS,Australia,Anglesea,150,-38.3861,144.1828,Coal,737.5416089
ARG,Argentina,CORRIENTES,1.4,-27.4708,-58.8042,Oil,19.60864426
DZA,Algeria,F'Krina,292,35.7666,7.3619,Gas,1208.571052
AUS,Australia,Liddell Solar Thermal,9.3,-32.3761,150.9797,Solar,137.7966877
AUS,Australia,Darling Downs,644,-27.1169,150.8942,Gas,1672.957346
AUS,Australia,Longford,31.8,-38.164,147.087,Gas,82.60876334
DZA,Algeria,Hadjret Ennous,1200,36.5767,2.0797,Gas,4966.730351
AUT,Austria,Simmering,1272,48.1815,16.4334,Gas,3323.692308
AUS,Australia,Appin (Mine),59.7,-34.2082,150.7722,Gas,155.0862633
AUS,Australia,Wodgina,13.7,-21.1739,118.6747,Gas,35.58930999
ARG,Argentina,COSTANERA,1982.2,-34.626,-58.3393,Coal,1139.130551
AUS,Australia,Wollert,4.4,-37.583,145.0487,Waste,0
AUS,Australia,Argyle Diamond Mine,32,-16.7162,128.4031,Oil,156.0360676
AUS,Australia,Lonsdale,20.7,-35.1097,138.491,Oil,100.9358312
AUT,Austria,St. Georgen,6,47.5333,14.3667,Hydro,29.64782134
AUS,Australia,Awaba,1.1,-33.025,151.5497,Waste,0
AUS,Australia,Wonthaggi Wind Farm,12,-38.6037,145.5462,Wind,28.92382059
AUS,Australia,Darlot Gold Mine,11.7,-27.8972,121.2698,Gas,30.39379029
DZA,Algeria,Hamma 2,418,36.7489,3.0823,Gas,1730.077739
DZA,Algeria,Hassi Messaoud Mobile,72,31.6703,6.0531,Gas,298.0038211
DZA,Algeria,Hassi Messoud,600,31.6703,6.0531,Gas,2483.365176
DZA,Algeria,Hassi Messoud Nord 2,200,31.7877,6.0517,Gas,827.7883919
DZA,Algeria,Hassi Messoud Ouest,492,31.8065,5.9924,Gas,2036.359444
DZA,Algeria,Ighil Emda,24,36.4739,5.2719,Hydro,254
DZA,Algeria,Jijel,588,36.8139,5.876,Gas,2433.697872
BGD,Bangladesh,Summit Bibiana-2,341,24.6358,91.6587,Gas,2316.099511
DZA,Algeria,Kahrama IPP,345,35.8064,-0.2476,Gas,1427.934976
DZA,Algeria,Koudiet Eddraouch,1200,36.885,8.0778,Gas,4966.730351
DZA,Algeria,Labreg,396,34.5056,6.9848,Gas,1639.021016
DZA,Algeria,Marsat,840,35.8,-0.1924,Gas,3476.711246
DZA,Algeria,Marsat TG,184,35.8,-0.1924,Gas,761.5653205
DZA,Algeria,Msila 1,980,35.7071,4.4804,Gas,4056.16312
DZA,Algeria,Ras Djinet,672,36.8509,3.6983,Gas,2781.368997
DZA,Algeria,Ravin Blanc,73,35.7095,-0.6319,Gas,302.142763
DZA,Algeria,Relizane,465,35.7835,0.5407,Gas,1924.608011
DZA,Algeria,SKB IPP,484,36.1399,2.9296,Gas,2003.247908
DZA,Algeria,SKS IPP SNC Lavalin,815,36.8789,6.9366,Gas,3373.237697
DZA,Algeria,SPP1 Thermal,150,32.9475,3.238,Gas,620.8412939
DZA,Algeria,Skikda,262,36.88,6.935,Gas,1084.402793
DZA,Algeria,Terga,1200,35.4608,-1.2295,Gas,4966.730351
DZA,Algeria,Tiaret,300,35.3396,1.3562,Gas,1241.682588
DZA,Algeria,Tilghemt 1,200,33.1319,3.348,Gas,827.7883919
DZA,Algeria,Tilghemt 2,600,33.1377,3.3678,Gas,2483.365176
AGO,Angola,Biopio,22.8,-12.4706,13.7319,Oil,739.2929145
ARG,Argentina,CRUZ DE PIEDRA,17.94,-33.0349,-68.7971,Gas,302.5193198
AUS,Australia,Woodlawn Bioreactor,4.3,-35.059,149.5769,Waste,0
AUT,Austria,St. Johann,16,47.3386,13.1974,Hydro,79.06085691
AUS,Australia,Bairnsdale,94,-37.8429,147.5639,Gas,244.1894262
AUS,Australia,Lower Lake Margaret,3.2,-42.0189,145.5425,Hydro,7.252005315
AUS,Australia,Dartmouth (Mount Beauty Hydro Scheme),185,-36.5564,147.5206,Hydro,419.2565573
AGO,Angola,Biopio (hydro),14.6,-12.4706,13.7319,Hydro,95.50817545
AGO,Angola,Cambambe,180,-9.7523,14.4809,Hydro,1177.498053
AGO,Angola,Capanda,520,-9.7955,15.4672,Hydro,3401.661043
AGO,Angola,Cazenga,132,-8.8383,13.2344,Gas,0
AGO,Angola,Huambo,16.26,-12.76,15.75,Oil,527.2325785
AGO,Angola,Lobito,20,-12.37,13.57,Gas,0
AGO,Angola,Luanda Diesel,58,-8.8383,13.2344,Oil,1880.657414
AGO,Angola,Luanda Refinery,18.5,-8.8383,13.2344,Oil,599.8648649
AGO,Angola,Malongo,10,-5.55,12.2,Oil,324.2512783
AGO,Angola,Matala,40,-14.7333,15.0333,Hydro,261.6662341
AGO,Angola,Namibe,11.68,-15.1961,12.1522,Gas,0
AGO,Angola,Rio Luachimo,16,-7.3,20.85,Hydro,104.6664936
AGO,Angola,Xitoto,11.34,-15.3333,15,Oil,367.7009496
ATA,Antarctica,McMurdo Station Generator,6.6,-77.847,166.6605,Oil,
ATA,Antarctica,Ross Island,1,-77.8428,166.7271,Wind,
ARG,Argentina,AGUA DEL CAJON (AUTOGENERADOR DEL MEM),479.2,-38.9368,-68.3556,Gas,0
ARG,Argentina,AGUA DEL CAJON (GENERADOR DEL MEM),192,-38.9368,-68.3556,Gas,3237.664961
ARG,Argentina,AGUA DEL TORO,130,-34.5792,-68.9892,Hydro,537.5395886
ARG,Argentina,ALICURA,1050,-40.58,-70.7489,Hydro,4341.665908
ARG,Argentina,ALMIRANTE BROWN,25,-34.8386,-58.4033,Oil,350.1543618
ARG,Argentina,ALTO VALLE,25,-38.9524,-68.0218,Gas,421.5709584
ARG,Argentina,ALTO VALLE,15,-38.9524,-68.0218,Gas,252.9425751
ARG,Argentina,ALTO VALLE,25,-38.9524,-68.0218,Other,0
ARG,Argentina,ALTO VALLE,17.5,-38.9524,-68.0218,Gas,295.0996709
ARG,Argentina,ALTO VALLE,15,-38.9524,-68.0218,Other,0
ARG,Argentina,ALUMINE,1.904,-39.2145,-70.9157,Oil,26.6677562
ARG,Argentina,ALVAREZ CONDARCO,50.7,-33.0452,-69.0516,Hydro,209.6404396
ARG,Argentina,ARROYITO,128,-39.1009,-68.5982,Hydro,529.2697488
ARG,Argentina,ATUCHA I,370,-33.967,-59.2059,Nuclear,1208.009075
ARG,Argentina,ATUCHA II,745,-33.9674,-59.2045,Nuclear,2432.342598
ARG,Argentina,BANDERA,31,-23.8219,-64.7847,Oil,434.1914086
ARG,Argentina,BARILOCHE (PUERTO  MORENO),5.736,-41.1167,-71.4167,Oil,80.33941677
ARG,Argentina,BENJAMIN REOLIN,38.4,-32.1883,-64.3233,Hydro,158.7809246
ARG,Argentina,BERNARDO  DE IRIGOYEN,2.096,-26.2545,-53.6469,Oil,29.35694169
ARG,Argentina,C.T. RUFINO,31.9,-34.2605,-62.7107,Oil,446.7969657
ARG,Argentina,C.T. SAN VICENTE,27.6,-35.0241,-58.4237,Oil,386.5704154
ARG,Argentina,CAA CATI,1.415,-27.7534,-57.6205,Oil,19.81873688
ARG,Argentina,CABRA CORRAL,102,-25.2712,-65.3298,Hydro,421.7618311
ARG,Argentina,CACHEUTA (NUEVA),120,-33.0291,-69.1109,Hydro,496.1903895
ARG,Argentina,CACHI,1.07,-25.1089,-66.2106,Oil,14.98660669
ARG,Argentina,CAFAYATE,4.182,-26.0715,-65.9876,Oil,58.57382164
ARG,Argentina,CAPITAL CATAMARCA - PREDIO CHOYA,5.728,-28.4537,-65.7841,Oil,80.22736738
ARG,Argentina,CAPITAL CATAMARCA - PREDIO EX CARCEL,7.075,-28.4773,-65.7872,Oil,99.09368439
ARG,Argentina,CAPITAL CATAMARCA - PREDIO RIPIERA,4.675,-28.4684,-65.7797,Oil,65.47886566
ARG,Argentina,CASA DE PIEDRA,60,-38.2143,-67.1908,Hydro,248.0951948
ARG,Argentina,CASSAFFOUSTH,17.28,-31.3992,-64.2006,Hydro,71.45141609
ARG,Argentina,CENTRAL BAHIA BLANCA (PIEDRA BUENA) SA,620,-38.7872,-62.2536,Coal,356.3015547
ARG,Argentina,CENTRAL LOMA DE LA LATA SA,540,-38.5127,-68.6048,Gas,0
ARG,Argentina,CENTRAL PARQUE INDUSTRIAL LA BANDA,11.228,-38.062,-67.9463,Oil,157.261327
ARG,Argentina,CENTRAL T.GENELBA,673.6,-34.9027,-58.7334,Gas,0
ARG,Argentina,CENTRAL T.GENELBA PLUS,164.55,-34.9027,-58.7334,Gas,2774.780048
ARG,Argentina,CENTRAL TERMICA BRIGADIER LOPEZ (ENARSA),280,-31.7112,-60.7811,Gas,4721.594734
AUS,Australia,Ballarat Base Hospital,2,-37.5596,143.8469,Gas,5.195519707
AUT,Austria,St. Martin,10,47.4467,15.2849,Hydro,49.41303557
AUS,Australia,Denham Diesel Backup,1.6,-25.9167,113.534,Oil,7.801803379
AUT,Austria,St. Pantaleon,52,48.0076,12.8942,Hydro,256.947785
AUT,Austria,St. Veit,16,47.3214,13.1744,Hydro,79.06085691
AUS,Australia,Lower Rubicon,2.7,-37.3027,145.8458,Hydro,6.118879484
ARG,Argentina,CRUZ DEL EJE,5.052,-30.7636,-64.7538,Oil,70.75919343
AUS,Australia,Derby,12.53,-17.3141,123.6441,Gas,32.54993097
AUS,Australia,Bamarang,320,-34.903,150.5258,Gas,831.2831531
AUT,Austria,Staning,43,48.1007,14.4568,Hydro,212.476053
AUS,Australia,Woodlawn Wind Farm,48.3,-35.0861,149.5716,Wind,116.4183779
AUS,Australia,Bango Wind Farm,200,-34.6058,148.8696,Wind,482.0636764
AUS,Australia,Woodman Point,1.8,-32.1424,115.7713,Waste,0
AUT,Austria,Steinfeld,1,46.7656,13.2717,Hydro,4.941303557
BGD,Bangladesh,Summit Power  Comilla,25,23.44,91.1869,Gas,169.8020169
AUS,Australia,Devils Gate,63,-41.3505,146.2632,Hydro,142.7738546
ARG,Argentina,CT 13 DE JULIO,26,-32.1613,-64.1537,Gas,438.4337968
AUS,Australia,Worsley,120,-33.2355,116.0688,Coal,590.0332871
AUS,Australia,Diamantina,242,-20.7837,139.4833,Gas,628.6578846
BGD,Bangladesh,Summit Power  Maona,33,24.2276,90.4201,Gas,224.1386623
AUS,Australia,Loy Yang A,2180,-38.2536,146.5746,Coal,10718.93805
AUS,Australia,Banimboola,12.5,-36.5342,147.4594,Hydro,28.32814576
ARG,Argentina,CT ALEM,15,-43.0907,-65.2298,Oil,210.0926171
AUS,Australia,Worsley Cogeneration,106,-33.2365,116.0637,Gas,275.3625445
AUS,Australia,Dry Creek,156,-34.8475,138.5818,Gas,405.2505372
AUS,Australia,Loy Yang B,1000,-38.2564,146.5864,Coal,4916.944059
BGD,Bangladesh,Summit Power (Madhabdi+Ashulia),80,23.8901,90.0323,Gas,543.3664541
AUT,Austria,Ternberg,40,47.9333,14.35,Hydro,197.6521423
AUS,Australia,Bankstown Sports Club,2.1,-33.9197,151.0332,Oil,10.23986694
AUT,Austria,Timelkam,400,48.0122,13.5895,Gas,1045.18626
AUS,Australia,Wyangala A,20,-33.981,148.9473,Hydro,45.32503322
ARG,Argentina,CT ALUMINE,6.3,-38.8706,-70.5753,Oil,88.23889917
AUS,Australia,EarthPower Biomass Plant,3.9,-33.8204,151.042,Waste,0
AUS,Australia,Bannaby,600,-34.4318,150.0531,Gas,1558.655912
AUS,Australia,Lucas Heights I,5.39,-34.0293,151.0021,Waste,0
AUT,Austria,Triebenbach,10,47.5,14.4667,Hydro,49.41303557
ARG,Argentina,CT ARISTOBULO DEL VALLE,15,-27.0922,-54.8625,Oil,210.0926171
AUS,Australia,Lucas Heights II,11.33,-34.0481,150.9739,Waste,0
AUS,Australia,Eastern Creek,5,-33.8142,150.8537,Waste,0
AUS,Australia,Wyndham,1.1,-37.9375,144.5902,Waste,0
AUS,Australia,Barcaldine (Len Wishaw),55,-23.5525,145.3142,Gas,142.8767919
BGD,Bangladesh,Summit Power Rupgonj,33,23.755,90.5496,Gas,224.1386623
AUS,Australia,Yabulu,244,-19.2011,146.6187,Gas,633.8534043
AUS,Australia,Eastern Creek 2,7.7,-33.8125,150.8617,Waste,0
ARG,Argentina,CT ARRECIFES,20,-34.0414,-60.1297,Oil,280.1234894
BGD,Bangladesh,Sylhet (Energyprima),222,24.9096,91.83,Gas,1507.84191
AUS,Australia,Barron Gorge,66,-16.8502,145.6465,Hydro,149.5726096
AUS,Australia,Lucas Heights III,4.12,-34.0481,150.9739,Waste,0
AUS,Australia,Yallourn,1480,-38.177,146.3428,Coal,7277.077208
AUS,Australia,Eildon,135,-37.222,145.9215,Hydro,305.9439742
AUT,Austria,Tuxbach,1,47.1485,11.8225,Hydro,4.941303557
ARG,Argentina,CT AÑATUYA,19.2,-28.4431,-62.8569,Oil,268.9185499
AUS,Australia,Yambuk Wind Farm,30,-38.3084,142.01,Wind,72.30955146
AUS,Australia,Bastyan,79.9,-41.736,145.5321,Hydro,181.0735077
BGD,Bangladesh,Thakurgaon (RZ),47,26.0383,88.4256,Oil,84.16732112
AUS,Australia,Yarrawonga,9.5,-36.0094,145.9995,Hydro,21.52939078
AUT,Austria,Urreiting,16,47.3749,13.2101,Hydro,79.06085691
ARG,Argentina,CT AÑATUYA II,11.5,-28.4431,-62.8569,Oil,161.0710064
AUS,Australia,Bayswater,2640,-32.3953,150.9491,Coal,12980.73232
AUS,Australia,Eildon Small Hydro,4.5,-37.2431,145.8974,Hydro,10.19813247
AUT,Austria,Vermuntwerk,157,46.9684,10.0599,Hydro,775.7846585
BGD,Bangladesh,Titas(Dautkandi),52,23.5461,90.7779,Oil,93.12129145
ARG,Argentina,CT BARILOCHE,20,-41.1497,-71.2633,Oil,280.1234894
AUS,Australia,Yarwun,154,-23.8306,151.1519,Gas,400.0550175
AUS,Australia,Macarthur Wind Farm,420,-38.0075,142.1865,Wind,1012.33372
AUS,Australia,Emu Downs Wind Farm,79.2,-30.4881,115.337,Wind,190.8972159
AUT,Austria,Vienna-Freudenau,172,48.1766,16.4814,Hydro,849.9042118
AUS,Australia,Yulara,4.5,-25.2323,130.9912,Gas,11.68991934
AUS,Australia,Mackay,34,-21.1446,149.1591,Gas,88.32383502
BGD,Bangladesh,Tongi GT,105,23.897,90.4123,Gas,713.168471
AUS,Australia,Energy Brix,189,-38.2546,146.4137,Coal,929.3024272
AUS,Australia,Belconnen,1,-35.2142,148.9872,Waste,0
AUS,Australia,Eraring,42,-33.0617,151.5223,Oil,204.7973387
ARG,Argentina,CT BELL VILLE,15.62,-32.6103,-62.6864,Oil,218.7764453
AUT,Austria,Villach,25,46.6329,13.8294,Hydro,123.5325889
AUS,Australia,Yurralyi Maya (Karratha Seven Mile),180,-20.762,116.742,Gas,467.5967736
AUS,Australia,Bell Bay (Bell Bay Three),120,-41.1429,146.903,Gas,311.7311824
BGD,Bangladesh,Ullapara (Summit),11,24.3071,89.5512,Gas,74.71288744
AUS,Australia,Mackintosh,81,-41.6997,145.6461,Hydro,183.5663845
AUT,Austria,Abwinden-Asten,168,48.248,14.4305,Hydro,830.1389976
BLR,Belarus,Bereza SDPP Thermal Power Plant Belarus,1130,52.4538,25.1926,Gas,4633.517225
AUS,Australia,Ben Lomond,200,-29.9623,151.6585,Wind,482.0636764
AUS,Australia,Eraring,2820,-33.0621,151.5206,Coal,13865.78225
AUT,Austria,Walgauwerk,86,47.192,9.6815,Hydro,424.9521059
ARG,Argentina,CT BRAGADO,49.8,-35.1364,-60.4311,Gas,839.7693492
AUS,Australia,Bendeela (Shoalhaven Scheme),80,-34.7337,150.4669,Hydro,181.3001329
AUT,Austria,Wallnerau Salzach stage,13,47.316,13.141,Hydro,64.23694624
AUT,Austria,Altenmarkt,26,46.7667,15.55,Hydro,128.4738925
AUS,Australia,Berrimah,10,-12.4262,130.9195,Gas,25.97759854
ARG,Argentina,CT CAPITAN SARMIENTO,5,-34.1636,-59.7683,Oil,70.03087236
AUS,Australia,Esperance,39,-33.8762,121.8998,Gas,101.3126343
AUT,Austria,Wallnerau underwater stage,5,47.3833,12.6,Hydro,24.70651779
BLR,Belarus,Bobruisk CHP-2 Power Plant Belarus,180,53.1895,29.2055,Gas,738.0823898
AUS,Australia,Macknade Sugar Mill,8,-18.589,146.258,Biomass,58.76150628
AUT,Austria,Arnstein,30,47.0167,15.1667,Hydro,148.2391067
AUS,Australia,Berwick,4.6,-38.1197,145.2665,Waste,0
AUT,Austria,Wallsee-Mitterkirchen,210,48.1666,14.6953,Hydro,1037.673747
ARG,Argentina,CT CATAMARCA,19.2,-28.4706,-65.7647,Oil,268.9185499
AUT,Austria,Weissenegg,1,46.8167,15.8667,Hydro,4.941303557
AUT,Austria,Aschach,287,48.3853,14.023,Hydro,1418.154121
AUS,Australia,Mandurah,1.3,-32.5079,115.759,Waste,0
BLR,Belarus,Gomel-1 CHP Power Plant Belarus,6,52.4141,31.0031,Gas,24.60274633
AUS,Australia,Bidyadanga,1.3,-18.6816,121.7848,Oil,6.338965246
AUT,Austria,Bischofshofen,16,47.407,13.2205,Hydro,79.06085691
ARG,Argentina,CT CAVIAHUE,5,-38.0528,-70.6136,Oil,70.03087236
BLR,Belarus,Gomel-2 CHP Power Plant Belarus,544,52.4492,30.8167,Gas,2230.649
AUS,Australia,Marble Bar Diesel Backup,1.28,-21.1649,119.7419,Oil,6.241442703
AUT,Austria,Werfen-Pfarrwerfen,16,47.4698,13.1945,Hydro,79.06085691
AUS,Australia,Esperance Wind Farm Nine Mile Beach,3.6,-33.8927,121.7778,Wind,8.677146176
AUS,Australia,Maryborough,7.5,-25.5476,152.7171,Biomass,55.08891213
AUT,Austria,Weyer,37,48.1465,14.1176,Hydro,182.8282316
AUT,Austria,Wind Park Bruck an der Leitha,9,48.0338,16.7264,Wind,393.3409091
AUT,Austria,Wind Park Hollern II,37,48.09,16.844,Wind,1617.068182
AUT,Austria,Wind Park Petronell-Carnuntum II,21,48.09,16.844,Wind,917.7954545
AUT,Austria,Windpark Bruck-Göttlesbrunn,21,48.095,16.89,Wind,917.7954545
AUT,Austria,Ybbs-Persenbeug,236,48.1892,15.0682,Hydro,1166.147639
AZE,Azerbaijan,Astara ES,87,38.456,48.875,Gas,844.8828452
AZE,Azerbaijan,Azerbaijan TPP,2400,40.78,46.9901,Oil,39
AZE,Azerbaijan,Baku ES,105,40.3734,49.9192,Gas,1019.686192
AZE,Azerbaijan,Baku TEC,107,40.3734,49.9192,Gas,1039.108787
AZE,Azerbaijan,Gusar,1,41.3979,48.3308,Hydro,1.334702259
AZE,Azerbaijan,Janub,780,39.8943,48.9173,Gas,7574.811715
AZE,Azerbaijan,Khachmaz ES,87,41.4635,48.806,Gas,844.8828452
AZE,Azerbaijan,Mingechevir,402,40.79,47.0287,Hydro,536.550308
AZE,Azerbaijan,Sangachal ES,299,40.1794,49.47,Gas,2903.677824
AZE,Azerbaijan,Shamkir,405,40.9487,46.168,Hydro,540.5544148
AZE,Azerbaijan,Shimal,400,40.4995,50.2077,Gas,3884.518828
AZE,Azerbaijan,Sumqayit,525,40.6036,49.6332,Gas,5098.430962
BLR,Belarus,Grodno CHP-2 Power Plant Belarus,180,53.6675,23.9272,Gas,738.0823898
ARG,Argentina,CT CERES,18,-29.8883,-61.9297,Oil,252.1111405
AUS,Australia,Blayney Wind Farm,9.9,-33.6219,149.1982,Wind,23.86215198
AUT,Austria,Braunau-Simbach,100,48.244,13.006,Hydro,494.1303557
AZE,Azerbaijan,Varvara,16,40.6837,47.0926,Hydro,21.35523614
AZE,Azerbaijan,Yenikend,150,40.9193,46.2829,Hydro,200.2053388
BHR,Bahrain,Al Dur Power and Water,1540,25.9714,50.6076,Gas,5539.852126
BHR,Bahrain,Al Ezzel Power Station,962,26.2175,50.6595,Gas,3460.608925
BHR,Bahrain,Alba Power Station,2204,26.0945,50.6008,Gas,7928.463692
BHR,Bahrain,Hawar Power ad Water Station,7.3,26.1981,50.5919,Oil,7
BHR,Bahrain,Hidd Power and Water station 1,963,26.2223,50.6621,Gas,3464.206232
BHR,Bahrain,Rifa'a Power Station,700,26.1199,50.5889,Gas,2518.114603
BHR,Bahrain,Sitra Power an Water Station,1205,26.1833,50.6237,Gas,4334.754423
BGD,Bangladesh,Amnura,50,24.6301,88.4006,Oil,89.53970332
BGD,Bangladesh,Ashuganj (Aggreko),1649,24.0426,91.0158,Gas,11200.14104
BGD,Bangladesh,Baghabari GT 1,223,24.1361,89.5933,Oil,399.3470768
BGD,Bangladesh,Barabkunda (Regent),22,22.5713,91.6841,Oil,39.39746946
BGD,Bangladesh,Barishal GT-unit-1 2,40,22.6588,90.3373,Gas,271.6832271
BGD,Bangladesh,Barupukuria ST 1,250,25.5502,88.9527,Coal,1100
BGD,Bangladesh,Bera Peaking,71,24.0895,89.6176,Oil,127.1463787
BGD,Bangladesh,Bheramara GT (Unit-1 2 3),560,24.0487,89.0173,Oil,1002.844677
BGD,Bangladesh,Bhola CCPP GT-1 2 ST,227,22.4786,90.7101,Gas,1541.802314
BGD,Bangladesh,Bogra GBB,42,24.8408,89.3506,Gas,285.2673884
BGD,Bangladesh,CLCPC Keranigonj,100,23.6473,90.3473,Oil,179.0794066
BGD,Bangladesh,Chittagong Roazan,553,22.457,91.9784,Gas,3756.020614
BGD,Bangladesh,Faridpur,54,23.6183,89.7733,Oil,96.70287958
BGD,Bangladesh,Fenchuganj (Barakatullah),296,24.6863,91.9189,Gas,2010.45588
BGD,Bangladesh,Feni (Doreen),33,23.9186,90.6926,Gas,224.1386623
BGD,Bangladesh,Ghorasal ST :Unit-3,861,23.9797,90.637,Gas,5847.981462
BGD,Bangladesh,Gopalganj Peaking,109,23.9797,90.637,Oil,195.1965532
BGD,Bangladesh,Hathazari,98,22.4918,91.8051,Oil,175.4978185
BGD,Bangladesh,Hobiganj (Confidence-EP),11,24.2639,91.379,Gas,74.71288744
BGD,Bangladesh,Horippur Power CCPP,946,23.6839,90.5314,Oil,1694.091187
BGD,Bangladesh,Jamalpur RPP,95,24.9103,89.9607,Oil,170.1254363
BGD,Bangladesh,Jangalia (Summit),85,23.4289,91.17,Gas,577.3268575
BGD,Bangladesh,Jhulda,100,22.2972,91.8062,Oil,179.0794066
BGD,Bangladesh,Kaptai Hydro:Unit-1 2 3 4 5,230,22.495,92.216,Hydro,588
BGD,Bangladesh,Karanigonj (Powerpac),100,23.6783,90.4295,Oil,179.0794066
BGD,Bangladesh,Katakhali (Peaking),100,24.366,88.6763,Oil,179.0794066
BGD,Bangladesh,Kathpotti 52 mw,52,23.5699,90.4804,Oil,93.12129145
BGD,Bangladesh,Khulna (KPCL-2),510,22.8646,89.5357,Gas,3463.961145
BGD,Bangladesh,Kodda Gajipur,149,23.9904,90.3429,Oil,266.8283159
BGD,Bangladesh,Madanganj (Summit),157,23.59,90.5153,Oil,281.1546684
BGD,Bangladesh,Meghnaghat CCPP,855,23.6112,90.6007,Oil,1531.128927
BGD,Bangladesh,Mymensingh,210,24.7611,90.4193,Gas,1426.336942
BGD,Bangladesh,Narshingdi (Doreen),22,23.9186,90.6926,Oil,39.39746946
BGD,Bangladesh,Noapara (khanjahan ali),40,22.3602,91.7812,Oil,71.63176265
BGD,Bangladesh,Northen 55 MW,55,23.8094,90.2433,Oil,98.49367365
BGD,Bangladesh,Pagla (DPA),50,23.6584,90.4584,Oil,89.53970332
BGD,Bangladesh,Patenga 50 MW,50,22.2385,91.8129,Oil,89.53970332
BGD,Bangladesh,Rangpur GT,20,25.7233,89.2432,Oil,35.81588133
BGD,Bangladesh,Santahar Peaking,50,24.7972,88.9839,Oil,89.53970332
BGD,Bangladesh,Shahjibazar 330 MW,536,24.2532,91.3751,Gas,3640.555242
BGD,Bangladesh,Shiddirganj ST,210,23.6846,90.517,Gas,1426.336942
BGD,Bangladesh,Shikalbaha Peaking (GT),261,22.3227,91.8651,Oil,467.3972513
BGD,Bangladesh,Siddhirganj (Dutch Bangla),520,24.3884,89.7436,Gas,3531.881952
BGD,Bangladesh,Siddirgonj (Desh),96,23.6825,90.5252,Oil,171.9162304
BGD,Bangladesh,Summit Barisal 110MW,110,22.659,90.3364,Gas,747.1288744
AUS,Australia,Esperance Wind Farm Ten Mile Lagoon,2.03,-33.8802,121.769,Wind,4.892946316
AUS,Australia,Maryvale Mill,54.5,-38.1809,146.4479,Biomass,400.3127615
BLR,Belarus,Lida Power Plant Belarus,43,53.9011,25.291,Gas,176.319682
AUS,Australia,Exmouth,8,-21.9465,114.125,Gas,20.78207883
AUT,Austria,Dionysen,16,47.4167,15.2833,Hydro,79.06085691
AUS,Australia,McArthur River Mine,20.9,-16.4335,136.0935,Gas,54.29318094
ARG,Argentina,CT CHARATA,19.4,-27.2369,-61.1939,Oil,271.7197848
AUS,Australia,Blowering,70,-35.3986,148.2463,Hydro,158.6376163
AUS,Australia,Fisher,46,-41.6732,146.2685,Hydro,104.2475764
AUT,Austria,Donaustadt,395,48.2,16.4633,Gas,1032.121432
AUS,Australia,Bluff Point (Woolnorth) Wind Farm,65,-40.7207,144.6869,Wind,156.6706948
AUS,Australia,McKay Creek (Mount Beauty Hydro Scheme),150,-36.8584,147.2345,Hydro,339.9377491
AUS,Australia,Fitzroy Crossing,4.06,-18.1956,125.5597,Gas,10.54690501
BLR,Belarus,Lukoml Thermal Power Plant Belarus,2460,54.6803,29.1341,Gas,10087.12599
AUT,Austria,Ering-Frauenstein,72,48.2194,13.16,Hydro,355.7738561
ARG,Argentina,CT CHILECITO,10,-29.1581,-67.5072,Oil,140.0617447
AUT,Austria,Erzbach,1,47.6,14.7333,Hydro,4.941303557
AUS,Australia,Boco Rock,270,-36.5914,149.1297,Wind,650.7859632
AUS,Australia,Meadowbank,40,-42.6112,146.8457,Hydro,90.65006643
BLR,Belarus,Minsk-3 CHP CCGT Power Plant,542,53.8799,27.6476,Gas,2222.448085
ARG,Argentina,CT CIPOLLETTI,5,-38.9133,-67.9414,Oil,70.03087236
AUT,Austria,Feistritz-Ludmannsdorf,88,46.5347,14.1712,Hydro,434.834713
AUS,Australia,Gadara,20,-35.2959,148.1371,Biomass,146.9037657
BLR,Belarus,Minsk-4 CHP CCGT Power Plant,1035,53.872,27.4022,Gas,4243.973741
AUT,Austria,Feldkirchen,38,46.8638,13.3355,Hydro,187.7695352
ARG,Argentina,CT COLON BUENOS AIRES,15.3,-33.9222,-61.0769,Oil,214.2944694
AUS,Australia,Meekatharra,2.9,-26.5952,118.483,Oil,14.14076862
AUS,Australia,Bodangora Wind Farm,100,-32.4137,149.059,Wind,241.0318382
ARG,Argentina,CT CONCEPCION DEL URUGUAY,41.78,-32.4767,-58.2672,Gas,704.5293857
AUT,Austria,Ferlach Maria Rain,75,46.5462,14.2985,Hydro,370.5977668
ARG,Argentina,CT CORRIENTES,20,-27.4708,-58.8042,Oil,280.1234894
AUS,Australia,Bogong (Mount Beauty Hydro Scheme),140,-36.8055,147.228,Hydro,317.2752325
AUS,Australia,Melbourne,1.2,-37.8086,144.9685,Gas,3.117311824
AUS,Australia,Geraldton,21,-28.7701,114.6485,Gas,54.55295693
BLR,Belarus,Minsk-5 CHP CCGT Power Plant,780,53.612,27.954,Gas,3198.357022
AUT,Austria,Fisching,22,47.1667,14.7333,Hydro,108.7086783
AUS,Australia,German Creek,31.8,-22.9281,148.5515,Gas,82.60876334
BLR,Belarus,Mogilev CHP-2 Thermal Power Plant Ukraine,345,53.8128,30.3421,Gas,1414.657914
ARG,Argentina,CT ECOENERGIA (PETROBRAS),13.2,-38.6871,-62.3961,Coal,7.585775035
AUS,Australia,Merredin,82,-31.5423,118.227,Gas,213.016308
AUS,Australia,Box Hill,25,-30.4994,151.6839,Wind,60.25795955
AUT,Austria,Freudenau Danube,172,48.1764,16.4811,Hydro,849.9042118
BLR,Belarus,Mozyr Thermal Power Plant Belarus,195,51.9049,29.3136,Gas,799.5892556
ARG,Argentina,CT ENSENADA DE BARRAGAN,567,-34.8597,-57.9557,Gas,9561.229337
AUS,Australia,Gladstone,1680,-23.8508,151.2187,Coal,8260.46602
AUS,Australia,Mica Creek,325,-20.7777,139.4905,Gas,844.2719524
AUS,Australia,Braemar 1,504,-27.1109,150.9053,Gas,1309.270966
AUT,Austria,Friesach,12,47.1667,15.3333,Hydro,59.29564268
AUS,Australia,Braemar 2,519,-27.1128,150.9049,Gas,1348.237364
AUS,Australia,Bremer Bay Diesel Backup,1.3,-34.4018,119.3888,Oil,6.338965246
AUS,Australia,Brewer,8.5,-23.8817,133.8281,Gas,22.08095876
AUS,Australia,Broadmeadows,6.2,-37.6878,144.9663,Waste,0
AUS,Australia,Broadwater,30,-29.0118,153.4335,Biomass,220.3556485
AUS,Australia,Broken Hill,50,-31.9863,141.4203,Gas,129.8879927
AUS,Australia,Broken Hill Solar Plant,53,-31.9867,141.3915,Solar,785.2929515
AUS,Australia,Brooklyn,2.8,-37.818,144.8319,Waste,0
AUS,Australia,Broome,39.6,-17.981,122.2046,Gas,102.8712902
AUS,Australia,Brown Mountain,5.4,-36.5951,149.4741,Hydro,12.23775897
AUS,Australia,Browns Plains,2.2,-27.6721,153.0663,Waste,0
AUS,Australia,Bulwer Island,33,-27.4036,153.1363,Gas,85.72607517
AUS,Australia,Buronga,150,-34.1013,142.2617,Gas,389.663978
AUS,Australia,Burrendong,18,-32.6646,149.108,Hydro,40.7925299
AUS,Australia,Burrinjuck Power Station,27.2,-35.0025,148.5834,Hydro,61.64204517
AUS,Australia,Burrup Peninsula (Karratha Gas Plant),240,-20.6286,116.7821,Gas,623.4623649
AUS,Australia,Burrup Peninsula (Pluto Phase 1),160,-20.5937,116.7802,Gas,415.6415766
AUS,Australia,Butlers Gorge,12.2,-42.2669,146.2618,Hydro,27.64827026
AUS,Australia,CSIRO Energy Centre,1.5,-32.8835,151.7275,Solar,22.22527221
AUS,Australia,Callide A,120,-24.334,150.628,Coal,590.0332871
AUS,Australia,Callide B,700,-24.3449,150.6197,Coal,3441.860842
AUS,Australia,Callide C,900,-24.3449,150.6182,Coal,4425.249654
AUS,Australia,Camballin,1.04,-18.0278,124.1621,Gas,2.701670248
AUS,Australia,Canning Vale,4,-32.0739,115.8914,Waste,0
AUS,Australia,Cannington Mine,40,-21.8601,140.9158,Gas,103.9103941
AUS,Australia,Canunda Wind Farm,46,-37.7603,140.4033,Wind,110.8746456
AUS,Australia,Cape Bridgewater Wind Farm,58,-38.3577,141.385,Wind,139.7984662
AUS,Australia,Cape Lambert,120,-20.6488,117.1407,Gas,311.7311824
AUS,Australia,Cape Nelson North Wind Farm,22,-38.3676,141.543,Wind,53.02700441
AUS,Australia,Cape Nelson South Wind Farm,44,-38.412,141.543,Wind,106.0540088
AUS,Australia,Cape Preston,450,-21.0767,116.159,Gas,1168.991934
AUS,Australia,Cape Sir William Grant Wind Farm,54,-38.3976,141.6209,Wind,130.1571926
AUS,Australia,Capital Wind Farm,140.7,-35.166,149.5186,Wind,339.1317964
AUS,Australia,Capral (Aluminium Smelter),300,-32.7897,151.4813,Gas,779.3279561
AUS,Australia,Carnarvon,15,-24.8692,113.6754,Gas,38.9663978
AUS,Australia,Catagunya,48,-42.4524,146.5977,Hydro,108.7800797
AUS,Australia,Cathedral Rocks Wind Farm,66,-34.8509,135.5852,Wind,159.0810132
AUS,Australia,Cawse Nickel Mine,16.5,-30.3808,121.1635,Gas,42.86303758
AUS,Australia,Cethana,100,-41.4802,146.1348,Hydro,226.6251661
AUS,Australia,Challicum Hills Wind Farm,52.5,-37.3898,143.114,Wind,126.5417151
AUS,Australia,Channel Island,232,-12.555,130.8666,Gas,602.680286
AUS,Australia,Charlestown Square,2.8,-32.9643,151.6936,Gas,7.27372759
AUS,Australia,Christmas Creek Iron Ore Mine,28,-22.399,119.732,Oil,136.5315591
AUS,Australia,Clayton,11,-37.9502,145.1187,Waste,0
AUS,Australia,Clements Gap Wind Farm,56.7,-33.5086,138.1192,Wind,136.6650523
AUS,Australia,Cloudbreak,36,-22.3247,119.404,Oil,175.540576
AUS,Australia,Clover,29,-36.7853,147.2205,Hydro,65.72129816
AUS,Australia,Cluny,17,-42.5064,146.6812,Hydro,38.52627823
AUS,Australia,Cockburn,240,-32.2001,115.7737,Gas,623.4623649
AUS,Australia,Codrington Wind Farm,18.2,-38.2835,141.9547,Wind,43.86779455
AUS,Australia,Collgar Wind Farm,206,-31.5002,118.4633,Wind,496.5255867
AUS,Australia,Collie (Bluewaters),416,-33.331,116.229,Coal,2045.448729
AUS,Australia,Collie A,340,-33.3422,116.2612,Coal,1671.76098
AUS,Australia,Collinsville,190,-20.5447,147.8049,Coal,934.2193713
AUT,Austria,Funsingau,25,47.2354,12.0583,Hydro,123.5325889
ARG,Argentina,CT ESQUINA,16.5,-30.055,-59.5294,Oil,231.1018788
AUT,Austria,Gabersdorf,14,46.7772,15.5842,Hydro,69.1782498
AUT,Austria,Gaming,14,48.1766,16.4813,Hydro,69.1782498
ARG,Argentina,CT FORMOSA II,30,-26.1764,-58.2094,Oil,420.1852342
AUT,Austria,Gerlos,200,47.2342,11.8997,Hydro,988.2607114
ARG,Argentina,CT GENERAL VILLEGAS,23.49,-35.0347,-62.9981,Oil,329.0050384
AUT,Austria,Gratkorn,11,47.1333,15.35,Hydro,54.35433913
AUS,Australia,Glenbawn,5,-32.1097,150.9982,Hydro,11.3312583
ARG,Argentina,CT GOYA,13,-29.1583,-59.2728,Oil,182.0802681
BLR,Belarus,Novopolotsk Thermal Power Plant Belarus,505,55.5265,28.549,Gas,2070.731149
ARG,Argentina,CT INDEPENDENCIA,120,-26.8666,-65.2247,Gas,2023.5406
ARG,Argentina,CT INGENIERO JUAREZ,4,-23.9078,-61.8342,Oil,56.02469789
ARG,Argentina,CT INTA CATAMARCA,7.04,-28.4733,-65.7275,Oil,98.60346828
AUS,Australia,Mildura Solar Farm,1.5,-34.4671,142.1833,Solar,22.22527221
ARG,Argentina,CT ISLA VERDE,24.5,-33.2425,-62.395,Oil,343.1512746
ARG,Argentina,CT JUAN JOSE CASTELLI,15,-25.9564,-60.6204,Oil,210.0926171
ARG,Argentina,CT JUNIN,22,-34.5708,-60.9161,Oil,308.1358384
ARG,Argentina,CT LA PLATA,40.4,-34.9344,-58.016,Oil,565.8494487
ARG,Argentina,CT LA RIOJA DELIVERY,19.2,-29.3811,-66.8325,Oil,268.9185499
ARG,Argentina,CT LA RIOJA SUR,10,-29.3808,-66.8319,Oil,140.0617447
ARG,Argentina,CT LAGUNA BLANCA,7,-25.1286,-58.2597,Oil,98.04322131
ARG,Argentina,CT LAS ARMAS,10.4,-37.0781,-57.8181,Gas,175.3735187
ARG,Argentina,CT LAS ARMAS II,23.37,-37.0781,-57.8181,Gas,394.0845319
ARG,Argentina,CT LAS PALMAS,6,-27.0289,-58.6997,Oil,84.03704683
ARG,Argentina,CT LIBERTADOR GENERAL SAN MARTIN,15,-40.8421,-68.0869,Oil,210.0926171
ARG,Argentina,CT LINCOLN,15.002,-34.8578,-61.5206,Oil,210.1206294
ARG,Argentina,CT LOBOS,15.686,-35.1917,-59.0808,Oil,219.7008528
ARG,Argentina,CT MAGDALENA,25,-35.1001,-57.4839,Oil,350.1543618
ARG,Argentina,CT MATHEU,41,-34.3931,-58.8372,Gas,691.3763718
ARG,Argentina,CT MEDANITOS (RINCON DE LOS SAUCES),32,-37.4102,-68.9,Oil,448.1975831
ARG,Argentina,CT MIRAMAR I,20,-38.2472,-57.8242,Oil,280.1234894
ARG,Argentina,CT OLAVARRIA,38.8,-36.9439,-60.2361,Gas,654.2781275
ARG,Argentina,CT ORAN,15,-23.1258,-64.3069,Oil,210.0926171
ARG,Argentina,CT PARANA,40,-31.7764,-60.4553,Gas,674.5135335
ARG,Argentina,CT PARQUE INDUSTRIAL CATAMARCA,15,-28.5339,-65.7997,Oil,210.0926171
ARG,Argentina,CT PASO DE LA PATRIA,7.2,-27.3236,-58.5667,Oil,100.8444562
ARG,Argentina,CT PEHUAJO,22.4,-35.8336,-61.8758,Oil,313.7383082
ARG,Argentina,CT PINAMAR,21,-37.0953,-56.8789,Gas,354.1196051
ARG,Argentina,CT PIRANE,16.25,-25.6786,-59.0756,Oil,227.6003352
ARG,Argentina,CT PLUSPETROL NORTE,246,-26.9955,-65.166,Gas,4148.258231
ARG,Argentina,CT RAFAELA,19.2,-31.2567,-61.5203,Oil,268.9185499
ARG,Argentina,CT REALICO,24,-35.055,-64.2406,Oil,336.1481873
ARG,Argentina,CT ROCA,130,-31.8919,-60.0106,Gas,2192.168984
ARG,Argentina,CT SAENZ PEÑA  I,20,-26.8156,-60.4114,Oil,280.1234894
ARG,Argentina,CT SAENZ PEÑA  II,15,-26.8153,-60.4125,Oil,210.0926171
ARG,Argentina,CT SALTO,22.5,-27.4597,-65.6055,Oil,315.1389256
ARG,Argentina,CT SAN MARTIN NORTE III,5.1,-34.5252,-58.6206,Oil,71.43148981
ARG,Argentina,CT SAN MIGUEL DE TUCUMAN,396.62,-26.9955,-65.166,Gas,0
ARG,Argentina,CT SAN MIGUEL NORTE III,11.5,-34.5252,-58.6206,Oil,161.0710064
ARG,Argentina,CT SANTA ROSA,6,-28.2628,-58.0006,Oil,84.03704683
ARG,Argentina,CT TARTAGAL,10,-22.5406,-63.8056,Oil,140.0617447
ARG,Argentina,CT TEREVINTOS,8,-28.4289,-65.7878,Oil,112.0493958
ARG,Argentina,CT TINOGASTA,15,-28.0486,-67.5667,Oil,210.0926171
ARG,Argentina,CT TUCUMAN,438,-26.9955,-65.166,Gas,0
ARG,Argentina,CT VENADO TUERTO,19.2,-33.7736,-61.9564,Oil,268.9185499
ARG,Argentina,CT VIALE,10,-31.8919,-60.0106,Oil,140.0617447
ARG,Argentina,CT VILLA ANGELA,15,-27.5808,-60.7094,Oil,210.0926171
ARG,Argentina,CT VILLA REGINA,5,-39.0872,-67.0881,Oil,70.03087236
ARG,Argentina,CUESTA DEL VIENTO,10.55,-30.1833,-69.0667,Hydro,43.62340508
ARG,Argentina,DEAN FUNES,70.12,-31.3934,-64.2059,Coal,40.29655647
ARG,Argentina,DIQUE,68.44,-34.8902,-57.933,Oil,958.5825809
ARG,Argentina,DOCK SUD,872.3,-34.6533,-58.342,Gas,0
ARG,Argentina,EL CADILLAL,14,-26.6156,-65.1929,Hydro,57.88887878
ARG,Argentina,EL CARRIZAL,17,-33.2993,-68.7199,Hydro,70.29363852
ARG,Argentina,EL CHOCON,1200,-39.2577,-68.7483,Hydro,4961.903895
AUT,Austria,Greifenstein,293,48.3553,16.2424,Hydro,1447.801942
AUS,Australia,Millmerran,856,-27.9615,151.2789,Coal,4208.904115
AUT,Austria,Hieflau,63,47.6,14.7333,Hydro,311.3021241
AUS,Australia,Mintaro,90,-33.9031,138.7383,Gas,233.7983868
AUS,Australia,Moranbah,12,-21.9851,148.0246,Gas,31.17311824
AUS,Australia,Glennies Creek,10,-32.4598,151.1286,Gas,25.97759854
AUS,Australia,Moranbah North,45.6,-21.8967,147.9507,Gas,118.4578493
AUS,Australia,Mortlake,566,-38.0632,142.6675,Gas,1470.332077
AUS,Australia,Glenorchy,1.6,-42.8415,147.255,Waste,0
BLR,Belarus,Orsha Cogeneration CCGT Power Plant Belarus,73,54.4809,30.3926,Gas,299.3334136
AUT,Austria,Hieflau-Erzbach,1,47.6,14.7333,Hydro,4.941303557
AUS,Australia,Mount Keith Nickel Mine,112,-27.2146,120.548,Gas,290.9491036
AUS,Australia,Gordon,432,-42.7386,145.9812,Hydro,979.0207175
BLR,Belarus,Svetlogorsk CHP Power Plant Belarus,155,52.6274,29.7708,Gas,635.5709468
AUS,Australia,Gosnells,1.1,-32.0228,116.0129,Waste,0
AUT,Austria,Jochenstein,132,48.5184,13.7076,Hydro,652.2520695
BLR,Belarus,Vitebsk Thermal Power Plant Belarus,75,55.1689,30.1355,Gas,307.5343291
AUT,Austria,KW Amlach,60,46.8142,12.7618,Hydro,296.4782134
AUS,Australia,Mount Magnet,1.9,-28.0871,117.8327,Gas,4.935743722
AUT,Austria,KW Imst,89,47.2122,10.7215,Hydro,439.7760166
AUS,Australia,Grange Avenue,1.3,-33.7029,150.8312,Waste,0
AUS,Australia,Mount Millar Wind Farm,70,-33.6267,136.7046,Wind,168.7222867
AUT,Austria,KW Jenbach,79,47.3932,11.7886,Hydro,390.362981
BLR,Belarus,Zhodino CHP CCGT Power Plant,54,54.0941,28.3505,Gas,221.4247169
AUS,Australia,Grasmere Wind Farm (Albany stage II),13.8,-35.0507,117.7638,Wind,33.26239367
BEL,Belgium,AALTER TJ,18.6,51.0902,3.4469,Oil,22.17692308
AUT,Austria,KW Kaunertal,392,47.0678,10.6652,Hydro,1936.990994
BEL,Belgium,ANGLEUR TG 41,128,50.6177,5.5837,Gas,640.4315577
AUS,Australia,Mount Stuart,424,-19.338,146.8512,Oil,2067.477895
AUS,Australia,Greenough River Solar Farm,10,-28.9043,115.1119,Solar,148.1684814
AUS,Australia,Mt Gambier,10,-37.8388,140.8057,Biomass,73.45188285
BEL,Belgium,AWIRS 4,95,50.5851,5.418,Biomass,939.0082645
AUS,Australia,Gunning,46.5,-34.6958,149.3832,Wind,112.0798048
AUS,Australia,Mt Piper,1400,-33.3589,150.0313,Coal,6883.721683
BEL,Belgium,Aalst Syral GT,43,50.936,4.0355,Gas,215.1449764
AUS,Australia,Guthega,60,-36.3501,148.4135,Hydro,135.9750997
AUS,Australia,Mugga Lane,3.5,-35.3953,149.1458,Waste,0
AUT,Austria,KW Kühtai,289,47.2078,11.0057,Hydro,1428.036728
BEL,Belgium,Aalst Syral ST,5,50.936,4.0355,Gas,25.01685772
AUS,Australia,Hallam Road,6.7,-38.0533,145.2699,Waste,0
AUT,Austria,KW Silz,500,47.2696,10.9678,Hydro,2470.651779
BEL,Belgium,Amercoeur 1 R TGV,451,50.4304,4.3955,Gas,2256.520566
AUS,Australia,Muja A,120,-33.4467,116.3081,Coal,590.0332871
AUS,Australia,Hallett,228.3,-33.3487,138.7517,Gas,593.0685746
AUS,Australia,Muja B,120,-33.4468,116.3087,Coal,590.0332871
BEL,Belgium,Aspiravi Wuustwezel,22.1,51.2488,3.2166,Wind,116.4965155
AUS,Australia,Hallett 1 Brown Hill  Wind Farm,94.5,-33.3397,138.7323,Wind,227.7750871
AUT,Austria,Kaprun Limberg II,480,47.1985,12.7223,Hydro,2371.825707
AUS,Australia,Muja C,400,-33.4458,116.306,Coal,1966.777624
BEL,Belgium,BEERSE TJ,33.2,51.3193,4.853,Oil,39.58461538
AUS,Australia,Hallett 1 Brown Hill  Wind Farm,94.5,-33.395,138.7299,Wind,227.7750871
AUT,Austria,Kaprun Oberstufe,113,47.1968,12.7192,Hydro,558.3673019
BEL,Belgium,BUDA TJ,18.6,50.9079,4.4155,Oil,22.17692308
AUS,Australia,Muja D,454,-33.4462,116.3072,Coal,2232.292603
AUS,Australia,Hallett 2 Hallet Hill  Wind Farm,71.4,-33.5226,138.8552,Wind,172.0967325
AUT,Austria,Kaprun main stage,240,47.2591,12.7389,Hydro,1185.912854
BEL,Belgium,BUTGENBACH,1.8,50.4359,6.2106,Hydro,1.677862312
AUS,Australia,Mulgrave,13,-17.0932,145.7887,Biomass,95.4874477
AUS,Australia,Hallett 2 Hallet Hill  Wind Farm,71.4,-33.5717,138.858,Wind,172.0967325
AUT,Austria,Kellerberg,25,46.67,13.6886,Hydro,123.5325889
AUS,Australia,Mumbida Wind Farm,55,-28.9918,114.9599,Wind,132.567511
BEL,Belgium,Belwind Phase 1,171,51.66,2.8,Wind,901.3983777
AUS,Australia,Hallett 4 North Brown Hill  Wind Farm,132.3,-33.3093,138.7296,Wind,318.885122
AUT,Austria,Klammsee,1,47.2591,12.7389,Hydro,4.941303557
AUS,Australia,Mungarra,112,-28.8893,115.1179,Gas,290.9491036
BEL,Belgium,Beveren 2 Indaver,20,51.2119,4.2563,Hydro,18.64291458
AUS,Australia,Hallett 5 The Bluff  Wind Farm,94.5,-33.3855,138.7928,Wind,227.7750871
AUT,Austria,Klaus,20,47.8314,14.1572,Hydro,98.82607114
BEL,Belgium,Beveren Ineos Phenolchemie,22.8,51.2119,4.2563,Gas,114.0768712
AUS,Australia,Mungullah,18,-24.8911,113.7095,Gas,46.75967736
AUS,Australia,Halls Creek,3.69,-18.2328,127.6619,Gas,9.58573386
AUT,Austria,Kopswerk II,525,46.975,10.043,Hydro,2594.184367
AUS,Australia,Munmorah,600,-33.2117,151.5418,Coal,2950.166436
BEL,Belgium,CIERREUX TJ,18.6,50.2444,5.9302,Oil,22.17692308
AUS,Australia,Hazelwood,1600,-38.2731,146.3923,Coal,7867.110495
AUT,Austria,Kreuzbergmaut,18,47.4412,13.2108,Hydro,88.94346403
BEL,Belgium,COO,1164,50.3849,5.8618,Hydro,1085.017629
AUS,Australia,Murray 1,950,-36.2467,148.1901,Hydro,2152.939078
AUS,Australia,Henderson,3.2,-32.165,115.8008,Waste,0
AUT,Austria,Kreuzeck days storage,45,46.8727,13.3117,Hydro,222.3586601
BEL,Belgium,DOEL 4,2910,51.3254,4.2597,Nuclear,16550.63114
AUS,Australia,Murray 2,552,-36.2423,148.1362,Hydro,1250.970917
AUT,Austria,Krippau,30,47.6833,14.7,Hydro,148.2391067
AUS,Australia,Highbury,1,-34.849,138.7203,Waste,0
AUT,Austria,Landl,25,47.65,14.7167,Hydro,123.5325889
BEL,Belgium,DROGENBOS DM 51,5,50.8023,4.299,Gas,25.01685772
AUS,Australia,Musselroe,168,-40.7798,148.0098,Wind,404.9334882
AUS,Australia,Hobart,1,-42.8883,147.2888,Waste,0
AUT,Austria,Laufnitzdorf,18,47.3,15.3167,Hydro,88.94346403
AUS,Australia,Narrogin Bioenergy Plant,1,-32.9521,117.1916,Biomass,7.345188285
BEL,Belgium,DROGENBOS GT0,48,50.8023,4.299,Gas,240.1618341
AUS,Australia,Hopetoun Diesel Backup,1.3,-33.905,120.1299,Oil,6.338965246
AUT,Austria,Lebring,20,46.8522,15.5383,Hydro,98.82607114
AUS,Australia,Neerabup,330,-31.6712,115.8021,Gas,857.2607517
BEL,Belgium,DROGENBOS TGV,465,50.8023,4.299,Gas,2326.567768
AUS,Australia,Hopetoun Wind Turbines,1.2,-33.9078,120.1297,Wind,2.892382059
AUT,Austria,Leoben,10,47.3833,15.1,Hydro,49.41303557
AUT,Austria,Losenstein,39,47.9243,14.4367,Hydro,192.7108387
AUT,Austria,Low Tuxbach - Small power plant Stillupp,2,47.1485,11.8225,Hydro,9.882607114
AUT,Austria,Lünerseewerk,280,47.074,9.874,Hydro,1383.564996
AUT,Austria,Malta Secondary school,120,47.0659,13.3539,Hydro,592.9564268
AUT,Austria,Malta main stage,730,47.0659,13.3539,Hydro,3607.151597
AUT,Austria,Mandling,6,47.4,13.5667,Hydro,29.64782134
AUT,Austria,Mayrhofen,355,47.1581,11.8501,Hydro,1754.162763
AUT,Austria,Melk,187,48.2232,15.3042,Hydro,924.0237652
AUT,Austria,Mellach run power plant,16,46.8833,15.5167,Hydro,79.06085691
AUT,Austria,Neuötting,26.1,40.1247,-8.7751,Hydro,128.9680228
AUT,Austria,Niklai,2,46.8167,13.3167,Hydro,9.882607114
AUT,Austria,Nussdorf near Vienna,5,47.2167,14.4833,Hydro,24.70651779
AUT,Austria,Oberaudorf Ebbs,60,47.6413,12.1989,Hydro,296.4782134
AUT,Austria,Obervermuntwerk,30,46.9271,10.0539,Hydro,148.2391067
AUT,Austria,Obervogau,13,46.745,15.5847,Hydro,64.23694624
AUT,Austria,Ottensheim-Wilhering,179,48.3166,14.1512,Hydro,884.4933367
AUT,Austria,Passau-Ingling,86,48.5536,13.4371,Hydro,424.9521059
AUT,Austria,Paternion,24,46.7209,13.6453,Hydro,118.5912854
AUT,Austria,Peggau,13,47.2,15.35,Hydro,64.23694624
AUT,Austria,Pernegg,22,47.3598,15.3424,Hydro,108.7086783
AUT,Austria,Pichlern,2,47.65,13.6667,Hydro,9.882607114
AUT,Austria,Rabenstein,14,47.35,13.6833,Hydro,69.1782498
AUT,Austria,Retznei,1,46.7333,15.5667,Hydro,4.941303557
AUT,Austria,Rodundwerk I,198,47.085,9.8813,Hydro,978.3781043
BEL,Belgium,Deux-Acren TJ,18.6,50.7303,3.8531,Oil,22.17692308
AUS,Australia,Hume,58,-36.1066,147.0326,Hydro,131.4425963
BEL,Belgium,Electrawinds biomassa Oostende,17.9,51.2234,2.9119,Hydro,16.68540855
BEL,Belgium,Froidchapelle Wind,25,50.2233,4.32,Wind,131.7833886
AUS,Australia,Hunter,29,-32.836,151.4505,Oil,141.4076862
BEL,Belgium,HAM-GENT WKK,52,51.05,3.7167,Gas,260.1753203
AUS,Australia,Newman Iron Ore Mine,140,-23.3443,119.7086,Gas,363.6863795
AUS,Australia,Hunter Valley,50,-32.3893,150.9664,Gas,129.8879927
AUS,Australia,Newport,500,-37.8415,144.8942,Gas,1298.879927
AUS,Australia,Nieterana,2.2,-42.2686,146.2629,Hydro,4.985753654
AUS,Australia,Inkerman Sugar Mill,10.5,-19.6422,147.4016,Biomass,77.12447699
AUS,Australia,Nine Network,3.2,-33.811,151.1966,Oil,15.60360676
BEL,Belgium,HEID-DE-GOREUX 1,8,50.426,5.7328,Hydro,7.457165832
AUS,Australia,Invicta Sugar Mill,50,-19.5167,147.1065,Biomass,367.2594142
AUS,Australia,Noranda,1.1,-31.8654,115.8773,Waste,0
AUS,Australia,Norseman Mine,9,-32.1963,121.7943,Oil,43.88514401
AUS,Australia,North Sydney,2.4,-33.8398,151.2069,Gas,6.234623649
AUS,Australia,Northern,530,-32.5433,137.7882,Coal,2605.980352
AUS,Australia,Nymboida,33.6,-29.9257,152.7417,Hydro,76.1460558
AUS,Australia,Nyngan Solar Plant,102,-31.5527,147.0854,Solar,1511.31851
AUS,Australia,Oakey,282,-27.4184,151.6798,Gas,732.5682787
AUS,Australia,Oakland Hills Wind Farm,67.2,-37.6638,142.5481,Wind,161.9733953
AUS,Australia,Oaky,4.8,-30.5751,152.069,Hydro,10.87800797
AUS,Australia,Oaky Creek,20,-22.9878,148.5817,Gas,51.95519707
AUS,Australia,Onslow,3.6,-21.6582,115.099,Gas,9.351935473
AUS,Australia,Ord River,30,-16.1201,128.7383,Hydro,67.98754983
AUS,Australia,Osborne,180,-34.798,138.5079,Gas,467.5967736
AUS,Australia,Owen Springs,36.7,-23.8636,133.8255,Gas,95.33778663
AUS,Australia,Paloona,30,-41.2826,146.249,Hydro,67.98754983
AUS,Australia,Paraburdoo,153,-23.2235,117.6135,Gas,397.4572576
AUS,Australia,Paraburdoo (Standby),20,-23.222,117.615,Gas,51.95519707
AUS,Australia,Pedler Creek,3.1,-35.2023,138.5021,Waste,0
AUS,Australia,Pelican Point,478,-34.765,138.5053,Gas,1241.72921
AUS,Australia,Perth Zoo,2.37,-31.9767,115.8548,Solar,35.11593009
AUS,Australia,Pindari,5.7,-29.3886,151.2442,Hydro,12.91763447
AUS,Australia,Pine Creek,34.76,-13.7856,131.8624,Gas,90.29813251
AUS,Australia,Pinjar,584,-31.5577,115.8204,Gas,1517.091754
AUS,Australia,Pinjarra Bauxite Mine and Alumina Refinery,280,-32.6473,115.9469,Gas,727.372759
AUS,Australia,Pioneer Sugar Mill,67.8,-19.5575,147.3308,Biomass,498.0037657
AUS,Australia,Plane Creek Sugar Mill,14,-21.4282,149.2159,Biomass,102.832636
AUS,Australia,Playford,240,-32.5393,137.7819,Coal,1180.066574
AUS,Australia,Isis Central Sugar Mill,25,-25.194,152.2086,Biomass,183.6297071
AUS,Australia,Jacks Gully,2.3,-34.0734,150.7427,Waste,0
AUS,Australia,Jeeralang A,212,-38.2753,146.4263,Gas,550.725089
AUS,Australia,Jeeralang B,228,-38.2746,146.4249,Gas,592.2892466
AUS,Australia,Jindabyne Dam Mini Hydro,1.1,-36.4351,148.6333,Hydro,2.492876827
BEL,Belgium,HERDERSBRUG STEG,465,51.2629,3.2112,Gas,2326.567768
AUS,Australia,John Butters,143,-42.1548,145.5345,Hydro,324.0739875
AUS,Australia,Jounama,14.4,-35.562,148.3055,Hydro,32.63402392
BEL,Belgium,HERDERSBRUG WIND,3,51.2622,3.2132,Wind,15.81400663
AUS,Australia,Jundee Gold Mine,21,-26.3712,120.5776,Gas,54.55295693
BEL,Belgium,HU AMPSIN-NEUVILLE,9.9,50.5335,5.2962,Hydro,9.228242717
AUS,Australia,KRC Cogeneration Plant,4.2,-27.4453,153.1185,Gas,10.91059139
BEL,Belgium,HU ANDENNE,9,50.4928,5.07,Hydro,8.389311561
BEL,Belgium,HU GRAND-MALADES,5,50.4665,4.8992,Hydro,4.660728645
BEL,Belgium,HU IVOZ-RAMET,10,50.5922,5.4613,Hydro,9.32145729
BEL,Belgium,HU LIXHE,20,50.7517,5.6863,Hydro,18.64291458
BEL,Belgium,HU MONSIN,19.7,50.6517,5.6308,Hydro,18.36327086
BEL,Belgium,INESCO WKK,138,51.2198,4.3266,Gas,690.4652731
BEL,Belgium,IVBO,16,51.2089,3.2242,Hydro,14.91433166
BEL,Belgium,Incinerateur THUMAIDE (IPALLE),32,50.5415,3.6301,Hydro,29.82866333
BEL,Belgium,Intradel Herstal,32,50.6642,5.6235,Hydro,29.82866333
BEL,Belgium,LANGERBRUGGE STORA ST 2,50,51.05,3.7167,Hydro,46.60728645
BEL,Belgium,LANGERLO 1,470,50.9405,5.4906,Coal,4402
BEL,Belgium,LANGERLO 4 REPOWERING,86,50.934,5.4784,Gas,430.2899528
BEL,Belgium,La Vierre,1.9,49.733,5.377,Hydro,1.771076885
BEL,Belgium,Marcinelle Energie (Carsid),405,50.4138,4.4067,Gas,2026.365475
BEL,Belgium,Noordschote TJ,18.6,50.9548,2.8103,Oil,22.17692308
BEL,Belgium,Northwind,216,51.6186,2.8998,Wind,1138.608477
BEL,Belgium,PLATE TAILLE T,144,50.1884,4.3861,Hydro,134.228985
BEL,Belgium,RINGVAART STEG,357,51.1049,3.7257,Gas,1786.203641
BEL,Belgium,RODENHUIZE 4,268,51.1341,3.777,Biomass,2648.991736
BEL,Belgium,RODENHUIZE WIND,4.5,51.1357,3.7878,Wind,23.72100994
BEL,Belgium,SAINT-GHISLAIN STEG,350,50.4719,3.8248,Gas,1751.18004
BEL,Belgium,SCHELLE WIND,4.5,51.1265,4.3226,Wind,23.72100994
BEL,Belgium,Schaerbeek Siomab ST1,45,50.8504,4.3488,Hydro,41.9465578
BEL,Belgium,T-power Beringen,422,51.0586,5.1056,Gas,2111.422792
BEL,Belgium,TIHANGE 1N,962,50.5342,5.2751,Nuclear,5471.377029
BEL,Belgium,TIHANGE 3,2053.8,50.5342,5.2751,Nuclear,11680.99183
BEL,Belgium,Thorntonbank - C-Power - Area NE,147.6,51.556,2.9689,Wind,778.049126
BEL,Belgium,Thorntonbank - C-Power - Area SW,177.6,51.54,2.921,Wind,936.1891923
BEL,Belgium,WM Park Powerport Zeebrugge,12,51.329,3.1819,Wind,63.25602651
BEL,Belgium,Wilrijk Isvag,10.5,51.1673,4.3951,Hydro,9.787530154
BEL,Belgium,Windvision Estinnes WIND,80,50.4116,4.0804,Wind,421.7068434
BEL,Belgium,ZEEBRUGGE WIND,12,51.3596,3.2219,Wind,63.25602651
BEL,Belgium,Zedelgem TJ,18.6,51.1424,3.1368,Oil,22.17692308
BEL,Belgium,Zeebrugge 2 Fluxys,40,51.329,3.1819,Gas,200.1348618
BEL,Belgium,Zeebrugge TJ,18.6,51.329,3.1819,Oil,22.17692308
BEL,Belgium,Zelzate 2 Knippegroen,315,51.1587,3.8068,Gas,1576.062036
BEL,Belgium,Zelzate TJ,18.6,51.1896,3.8078,Oil,22.17692308
BEL,Belgium,Zwijndrecht Lanxess GT,43,51.2382,4.3408,Gas,215.1449764
BEL,Belgium,Zwijndrecht Lanxess ST,15,51.2382,4.3408,Gas,75.05057316
BEN,Benin,Akpakpa,40.5,6.3506,2.4295,Gas,0
BEN,Benin,Cotonou,20,6.4263,2.3066,Oil,183
BTN,Bhutan,Basochhu Hydroelectric Power Plant Bhutan,64,27.4254,89.9043,Hydro,
BTN,Bhutan,Chhukha Hydroelectric Power Plant Bhutan,336,27.1104,89.5313,Hydro,
BTN,Bhutan,Kurichhu Hydro-electric Power Station Bhutan,60,27.2162,91.2035,Hydro,
BTN,Bhutan,Rangjung Small Hydroelectric Power Plant Bhutan,2.2,27.3567,91.6497,Hydro,
BTN,Bhutan,Tala Hydroelectric Power Plant Bhutan,1020,27.036,89.5953,Hydro,
AUS,Australia,Kalamia Sugar Mill,9,-19.5223,147.4152,Biomass,66.10669456
AUS,Australia,Kalamunda,1.3,-31.9768,115.9988,Oil,6.338965246
AUS,Australia,Kalbarri Wind Farm,1.7,-27.8995,114.1946,Wind,4.09754125
AUS,Australia,Kalgoorlie (Parkeston),110,-30.7378,121.5065,Gas,285.7535839
AUS,Australia,Kalgoorlie Nickel Smelter,37,-30.8737,121.4842,Gas,96.11711458
AUS,Australia,Kambalda,42,-31.1919,121.6741,Gas,109.1059139
AUS,Australia,Kangaroo Valley (Shoalhaven Scheme),160,-34.723,150.4795,Hydro,362.6002657
AUS,Australia,Kareeya,88,-17.767,145.5779,Hydro,199.4301462
AUS,Australia,Karratha,86,-20.7626,116.8375,Gas,223.4073474
AUS,Australia,Katherine,21,-14.4587,132.2445,Gas,54.55295693
AUS,Australia,Kemerton,310,-33.1632,115.7805,Gas,805.3055546
AUS,Australia,King Island (Currie),8.55,-39.9388,143.892,Oil,41.69088681
AUS,Australia,Kogan Creek,744,-26.9177,150.7493,Coal,3658.20638
AUS,Australia,Koombooloomba,7.3,-17.8313,145.6034,Hydro,16.54363712
AUS,Australia,Kununurra,12.4,-15.7796,128.7395,Oil,60.46397619
AUS,Australia,Kwinan,21,-32.197,115.7759,Gas,54.55295693
AUS,Australia,Kwinana (Alcoa Refinery),66,-32.1946,115.7797,Gas,171.4521503
AUS,Australia,Kwinana (NewGen),320,-32.202,115.7728,Gas,831.2831531
AUS,Australia,Kwinana A,240,-32.198,115.7752,Coal,1180.066574
AUS,Australia,Kwinana C,400,-32.1992,115.7747,Coal,1966.777624
AUS,Australia,Kwinana Cogeneration,123,-32.2225,115.7661,Gas,319.524462
AUS,Australia,Kwinana High Efficiency Gas Turbine Plant,200,-32.1973,115.7754,Gas,519.5519707
AUS,Australia,Kwinana Swift,120,-32.2243,115.7783,Gas,311.7311824
AUS,Australia,Ladbroke Grove,80,-37.4567,140.7827,Gas,207.8207883
BRA,Brazil,Cabrera,25,-19.3074,-50.7083,Biomass,89.52558378
BRA,Brazil,Cachoeira,11.12,-12.4922,-60.4717,Hydro,42.35687246
BRA,Brazil,Cachoeira,7.4,-9.4383,-35.724,Biomass,26.4995728
BRA,Brazil,Cachoeira Caldeirão,219,0.8533,-51.2917,Hydro,834.1866069
BRA,Brazil,Cachoeira Dourada,658,-18.5025,-49.4931,Hydro,2506.368892
BRA,Brazil,Cachoeira Dourada,40,-18.4945,-49.6445,Biomass,143.240934
BRA,Brazil,Cachoeira Paulista,1,-22.7486,-44.9056,Hydro,3.809071264
BRA,Brazil,Engenheiro Ernesto Jorge Dreher,17.87,-29.1203,-53.3678,Hydro,68.0681035
BRA,Brazil,Atlântica IV,30,-30.2919,-50.335,Wind,35.57470971
BRA,Brazil,Cachoeira Poço Preto I,3.564,-24.0381,-49.4617,Hydro,13.57552999
BRA,Brazil,Cachoeira Poço Preto II,2.098,-24.0479,-49.4578,Hydro,7.991431513
BRA,Brazil,Cachoeira da Lixa,14.8,-17.0742,-40.0683,Hydro,56.37425471
BRA,Brazil,Cachoeira do Brumado,2.34,-21.8528,-43.8886,Hydro,8.913226759
BRA,Brazil,Cachoeira do Lavrinha (Antiga São Patrício),3.01,-15.5161,-49.4847,Hydro,11.46530451
BRA,Brazil,Cachoeirinha,1.25,-22.57,-46.41,Hydro,4.761339081
BRA,Brazil,Cachoeirinha,1,-26.7706,-52.1786,Hydro,3.809071264
BRA,Brazil,Cachoeirão,27,-19.4367,-41.6142,Hydro,102.8449241
BRA,Brazil,Cacimbas 1,18.9,-3.2532,-39.2809,Wind,22.41206712
BRA,Brazil,Caconde,80.4,-21.5767,-46.6242,Hydro,306.2493297
BRA,Brazil,Cadam,24.992,0.3843,-53.954,Oil,106.9002891
BRA,Brazil,Caetité,30.24,-14.1272,-42.5471,Wind,35.85930738
BRA,Brazil,Caetité 1,30,-14.1632,-42.4845,Wind,35.57470971
BRA,Brazil,Caetité 2,30,-14.185,-42.503,Wind,35.57470971
BOL,Bolivia,Aranjuez Power Plant Bolivia,36.7,-19.0394,-65.2697,Gas,213.4928139
BRA,Brazil,Caetité 3,30,-14.2194,-42.507,Wind,35.57470971
BRA,Brazil,Caetité A,23.8,-14.1415,-42.4783,Wind,28.22260303
BRA,Brazil,Caetité B,22.1,-14.1146,-42.4749,Wind,26.20670282
BRA,Brazil,Caetité C,8.5,-14.1082,-42.4746,Wind,10.07950108
BRA,Brazil,Caititu,22.2,-14.4528,-42.641,Wind,26.32528518
BRA,Brazil,Caixão,1.172,-20.0569,-44.6089,Hydro,4.464231522
BRA,Brazil,Caju,3.2,-26.9517,-52.4594,Hydro,12.18902805
BRA,Brazil,Caju,10,-21.8958,-42.0791,Hydro,38.09071264
BRA,Brazil,Cajucoco,30,-2.9159,-39.9544,Wind,35.57470971
BRA,Brazil,Cajuru,7.2,-20.2394,-44.7539,Hydro,27.4253131
BRA,Brazil,Calango 1,30,-6.0339,-36.544,Wind,35.57470971
BRA,Brazil,Calango 2,30,-6.0166,-36.4835,Wind,35.57470971
BRA,Brazil,Calango 3,30,-6.0489,-36.546,Wind,35.57470971
BRA,Brazil,Calango 4,30,-6.0236,-36.472,Wind,35.57470971
BRA,Brazil,Calango 5,30,-6.0303,-36.488,Wind,35.57470971
BRA,Brazil,Calango 6,30,-6.0132,-36.4499,Wind,35.57470971
BRA,Brazil,Calheiros,19,-20.9847,-41.71,Hydro,72.37235402
BRA,Brazil,Calçados Azaléia,7.5,-15.245,-40.2385,Oil,32.08035243
BRA,Brazil,Calçoene,1.296,2.502,-50.9395,Oil,5.5434849
BRA,Brazil,Camargos,46,-21.3256,-44.6161,Hydro,175.2172782
BRA,Brazil,Camaçari,130.71,-12.694,-38.3145,Gas,938.9782972
BRA,Brazil,Camaçari,346.803,-12.5975,-38.2732,Gas,2491.320407
BRA,Brazil,Cambará,3.59,-15.9697,-55.0883,Hydro,13.67456584
BRA,Brazil,Camera Ijui,1.104,-28.4317,-53.878,Oil,4.722227878
BRA,Brazil,Camera Santa Rosa,3.12,-27.8548,-54.4707,Oil,13.34542661
BRA,Brazil,Camera São Luiz Gonzaga,1.6,-28.4007,-54.9626,Oil,6.843808519
BRA,Brazil,Camil Alimentos - Camaquã,4,-30.8189,-51.7039,Biomass,14.3240934
BRA,Brazil,Caminho da Praia,2,-8.3344,-35.0053,Wind,2.371647314
BRA,Brazil,Campina Grande,169.08,-7.2307,-35.89,Oil,723.2194652
BRA,Brazil,Campo Belo,10.5,-26.6123,-51.7401,Wind,12.4511484
BRA,Brazil,Campo Florido,30,-19.8091,-48.7255,Biomass,107.4307005
BRA,Brazil,Campo Lindo,25,-10.4681,-37.1815,Biomass,89.52558378
BRA,Brazil,Campo Maior,13.12,-4.8424,-42.1836,Oil,56.11922986
BRA,Brazil,Campo Real,1,-25.4175,-51.7514,Hydro,3.809071264
BRA,Brazil,Campo dos Ventos I,25.2,-5.345,-35.9428,Wind,29.88275615
BRA,Brazil,Campo dos Ventos II,30,-5.3201,-35.9322,Wind,35.57470971
BRA,Brazil,Campo dos Ventos III,25.2,-5.3356,-35.9669,Wind,29.88275615
BRA,Brazil,Campo dos Ventos V,25.2,-5.2931,-35.9479,Wind,29.88275615
BRA,Brazil,Campos (Antiga Roberto Silveira),30,-21.7155,-41.3285,Gas,215.5102817
BRA,Brazil,Campos Novos,880,-27.6017,-51.3169,Hydro,3351.982713
BRA,Brazil,Camurim,4.8,-6.5576,-34.9721,Wind,5.691953553
BRA,Brazil,Cana Brava,450,-13.3992,-48.1425,Hydro,1714.082069
BRA,Brazil,Canabrava,44,-21.6491,-41.3957,Biomass,157.5650274
BRA,Brazil,Canastra,42.5,-29.3934,-50.7465,Hydro,161.8855287
BRA,Brazil,Canatiba Tupis,2.7,-22.7731,-47.366,Oil,11.54892688
BRA,Brazil,Canaã,30,-22.9258,-47.5567,Biomass,107.4307005
BRA,Brazil,Canaã,17,-9.9439,-63.0642,Hydro,64.7542115
BRA,Brazil,Candiba,9.6,-14.1831,-42.6227,Wind,11.38390711
BRA,Brazil,Candiota III,350,-31.5458,-53.6566,Coal,3352.774429
BRA,Brazil,Canoa Quebrada,28,-12.7833,-56,Hydro,106.6539954
BRA,Brazil,Canoa Quebrada,57,-4.4671,-37.7577,Wind,67.59194844
BRA,Brazil,Canoas I,82.5,-22.9414,-50.5169,Hydro,314.2483793
BRA,Brazil,Canoas II,72,-22.9361,-50.2497,Hydro,274.253131
BRA,Brazil,Cantú 2,19.8071,-24.7458,-52.4681,Hydro,75.44665544
BRA,Brazil,Capigui,3.76,-28.352,-52.204,Hydro,14.32210795
BRA,Brazil,Capivara (Escola de Engenharia Mackenzie),619,-22.658,-51.3598,Hydro,2357.815113
BRA,Brazil,Capivari,18.09,-28.1156,-48.966,Hydro,68.90609917
BRA,Brazil,Capricho,2.4,-9.3335,-36.1501,Biomass,8.594456043
BRA,Brazil,Capuava,18.02,-23.66,-46.5285,Oil,77.07839344
BRA,Brazil,Capão Preto,4.3,-21.85,-47.7833,Hydro,16.37900644
BRA,Brazil,Capão do Inglês,10,-30.9163,-55.7084,Wind,11.85823657
BRA,Brazil,Caracaraí,10.956,1.8265,-61.1136,Oil,46.86297883
BRA,Brazil,Caramuru Sorriso,9.696,-12.7418,-55.6773,Biomass,34.72160241
BRA,Brazil,Carandaí,4.234,-21.0556,-44.2094,Hydro,16.12760773
BRA,Brazil,Carangola,15,-20.7019,-42.0394,Hydro,57.13606897
BRA,Brazil,Carauari,5.456,-5.1149,-67.3281,Oil,23.33738705
BRA,Brazil,Caravela,4.8,-6.556,-34.969,Wind,5.691953553
BRA,Brazil,Carcará I,30,-4.9438,-36.9918,Wind,35.57470971
BRA,Brazil,Carcará II,30,-4.9457,-37.0036,Wind,35.57470971
BRA,Brazil,Careiro da Várzea,2.5,-3.1938,-59.7647,Oil,10.69345081
BRA,Brazil,Cargil Três Lagoas,6,-20.7978,-51.6318,Biomass,21.48614011
BRA,Brazil,Cargill Uberlândia,25,-18.8483,-48.2765,Biomass,89.52558378
BRA,Brazil,Carioca Shopping,3.2,-22.899,-43.1985,Gas,22.98776338
BRA,Brazil,Carlos Gonzatto,9,-27.6206,-53.8047,Hydro,34.28164138
BRA,Brazil,Carrefour - RPN,1.44,-21.1593,-47.8055,Oil,6.159427667
BRA,Brazil,Carrefour - SON,1.44,-23.4861,-47.4719,Oil,6.159427667
BRA,Brazil,Carrefour BGU,1.08,-23.4643,-46.5122,Oil,4.61957075
BRA,Brazil,Carrefour CPS,1.44,-22.8496,-47.0178,Oil,6.159427667
BRA,Brazil,Carrefour SAV,1.44,-23.9632,-46.36,Oil,6.159427667
BRA,Brazil,Codorna,1.944,-20.1517,-43.8842,Hydro,7.404834538
BRA,Brazil,Boa Fé,24,-28.7527,-51.8436,Hydro,91.41771035
BRA,Brazil,Almirante Álvaro Alberto - Unidade II (Antiga Angra II),1350,-23.0072,-44.4588,Nuclear,10432.31156
BRA,Brazil,Carrefour SPT,1.44,-23.5188,-46.5914,Oil,6.159427667
BRA,Brazil,Casa de Força,7.92,-20.2304,-50.3345,Biomass,28.36170494
BRA,Brazil,Engenheiro Henrique Kotzian,13,-29.1306,-53.3156,Hydro,49.51792644
BRA,Brazil,Boa Sorte,16,-11.8803,-46.7717,Hydro,60.94514023
BRA,Brazil,Atlântica V,30,-30.2915,-50.305,Wind,35.57470971
BRA,Brazil,Engenheiro José Gelásio da Rocha,24.435,-16.7,-54.76,Hydro,93.07465635
BRA,Brazil,Coelhos I,4.8,-6.5758,-34.9718,Wind,5.691953553
BRA,Brazil,Boa Vista,80,-18.5423,-50.4335,Biomass,286.4818681
BOL,Bolivia,Botijlaca Hydroelectric Power Plant Bolivia,10.6,-16.1925,-68.1405,Hydro,53.12981519
BOL,Bolivia,Bulo Bulo OCGT Power Plant Bolivia,90,-17.2424,-64.5409,Gas,523.5518597
BRA,Brazil,Engenheiro José Luiz Muller de Godoy Pereira (Antiga Foz do Rio Claro),68.4,-19.1178,-50.6456,Hydro,260.5404745
BRA,Brazil,Atos,3,-9.8679,-57.8132,Biomass,10.74307005
BRA,Brazil,Alta Floresta,5,-11.9319,-62.0425,Hydro,19.04535632
BRA,Brazil,Casa de Geradores de Energia Elétrica F-242,9,-23.0951,-45.822,Gas,64.6530845
BRA,Brazil,Engenho Coradini,1.2,-30.9735,-54.6353,Biomass,4.297228021
BRA,Brazil,Alta Mogiana,75,-20.4819,-47.8662,Biomass,268.5767513
BOL,Bolivia,Cahua Hydroelectric Power Plant Bolivia,30,-16.0456,-67.9939,Hydro,150.3674015
BRA,Brazil,Aura Mangueira XI,9,-33.0519,-52.8587,Wind,10.67241291
BRA,Brazil,Coelhos II,4.8,-6.5701,-34.9674,Wind,5.691953553
BOL,Bolivia,Carrasco OCGT Power Plant Bolivia,152.6,-17.2125,-64.5275,Gas,887.7112643
BRA,Brazil,Altero Design,2.032,-29.6341,-50.9975,Oil,8.691636819
BRA,Brazil,Casca II,3.52,-15.3636,-55.4453,Hydro,13.40793085
BRA,Brazil,Enguia Pecém,14.76,-3.598,-39.0477,Oil,63.13413359
BRA,Brazil,Boa Vista II,8,-24.9229,-51.3963,Hydro,30.47257012
BRA,Brazil,Coelhos III,4.8,-6.5566,-34.9664,Wind,5.691953553
BRA,Brazil,Envira,3.38,-7.4368,-70.0203,Oil,14.4575455
BRA,Brazil,Equipav,58.4,-21.5208,-49.8611,Biomass,209.1317637
BRA,Brazil,Equipav II,80,-21.5208,-49.8611,Biomass,286.4818681
BRA,Brazil,Ernestina,4.8,-28.5558,-52.5456,Hydro,18.28354207
BRA,Brazil,Ernesto Lavratti Neto,1,-26.5531,-52.3272,Hydro,3.809071264
BRA,Brazil,Esdeva,2.545,-21.7602,-43.3408,Oil,10.88593293
BRA,Brazil,Esmeralda,22.2,-27.7833,-51.3667,Hydro,84.56138207
BRA,Brazil,Esmeril,5.04,-20.8333,-47.3,Hydro,19.19771917
BRA,Brazil,Esperança,2.4,-13.7786,-59.7889,Hydro,9.141771035
BRA,Brazil,Espigão,2.3,-11.4797,-60.7469,Hydro,8.760863908
BRA,Brazil,Espigão,10.08,-14.477,-42.5853,Wind,11.95310246
BRA,Brazil,Espirito Santo,1.44,-19.9196,-43.9289,Oil,6.159427667
BRA,Brazil,Espora,32.01,-18.6758,-51.8656,Hydro,121.9283712
BRA,Brazil,Espraiado,1.25,-22.35,-46.225,Hydro,4.761339081
BRA,Brazil,Aura Mangueira XII,15,-33.1318,-52.9938,Wind,17.78735485
BRA,Brazil,Ester,46.4,-22.6533,-47.2014,Biomass,166.1594835
BRA,Brazil,Estivas,17,-6.2266,-35.198,Biomass,60.87739697
BRA,Brazil,Estreito,1087,-6.5872,-47.4594,Hydro,4140.460464
BRA,Brazil,Estreito (Luiz Carlos Barreto de Carvalho),1048,-20.1506,-47.2794,Hydro,3991.906685
BRA,Brazil,Estrela,29.7,-3.248,-39.2943,Wind,35.21896261
BRA,Brazil,Eternit,2.96,-25.2877,-49.2147,Oil,12.66104576
BRA,Brazil,Eternit Simões Filho,1.44,-12.7805,-38.3944,Oil,6.159427667
BRA,Brazil,Euclidelândia,1.4,-21.9166,-42.2549,Hydro,5.33269977
BRA,Brazil,Euclides da Cunha,108.8,-21.6031,-46.9492,Hydro,414.4269536
BRA,Brazil,Eurus I,30,-5.3651,-35.8619,Wind,35.57470971
BRA,Brazil,Eurus II,30,-5.3919,-35.8331,Wind,35.57470971
BRA,Brazil,Eurus III,30,-5.3973,-35.8749,Wind,35.57470971
BRA,Brazil,Eurus IV,27,-5.2622,-35.8145,Wind,32.01723874
BRA,Brazil,Eurus VI,8,-5.2329,-35.9318,Wind,9.486589255
BRA,Brazil,Euzébio Rocha (Antiga Cubatão - CCBS),249.9,-23.9293,-46.4239,Gas,1795.200646
BRA,Brazil,Evo,1,-24.474,-51.7922,Hydro,3.809071264
BRA,Brazil,Extra Aracaju,1.408,-10.9071,-37.0622,Oil,6.022551497
BRA,Brazil,Extra Caraguatatuba,2.72,-23.6163,-45.4036,Oil,11.63447448
BRA,Brazil,Extra São José dos Campos,1.44,-23.1755,-45.8775,Oil,6.159427667
BRA,Brazil,Eólica Canoa Quebrada,10.5,-4.5358,-37.6953,Wind,12.4511484
BRA,Brazil,Eólica Icaraizinho,54.6,-3.0179,-39.6741,Wind,64.74597167
BRA,Brazil,Eólica Paracuru,25.2,-3.4315,-38.962,Wind,29.88275615
BRA,Brazil,Eólica Praias de Parajuru,28.804,-4.3631,-37.8839,Wind,34.15646461
BRA,Brazil,Eólica de Prainha,10,-3.8708,-38.3803,Wind,11.85823657
BRA,Brazil,Eólica de Taíba,5,-3.4953,-38.9339,Wind,5.929118285
BRA,Brazil,Eólica Água Doce,9,-26.5839,-51.6876,Wind,10.67241291
BRA,Brazil,Eólio - Elétrica de Palmas,2.5,-26.5781,-51.7004,Wind,2.964559142
BRA,Brazil,F,3.792,-20.1169,-43.8681,Hydro,14.44399823
BRA,Brazil,F PIO - LOJAS VISÃO BELÉM,1.524,-1.4575,-48.4944,Oil,6.518727614
BRA,Brazil,FBA,4.44,-23.3516,-47.8475,Oil,18.99156864
BRA,Brazil,FERROUS RESOURCES DO BRASIL S A,3,-20.5032,-43.9168,Oil,12.83214097
BRA,Brazil,FIRMENICH 1,1.44,-23.5985,-46.908,Oil,6.159427667
BRA,Brazil,FIRMENICH 2,1.32,-23.5999,-46.9097,Oil,5.646142028
BRA,Brazil,FNS-PO,1.7978,-27.595,-48.5486,Oil,7.689874347
BRA,Brazil,FORTALEZA - 2,1.8,-3.7489,-38.4539,Oil,7.699284584
BRA,Brazil,Fagundes,4.8,-22.2042,-43.0931,Hydro,18.28354207
BRA,Brazil,Fany,1.2,-22.3051,-51.2115,Biomass,4.297228021
BRA,Brazil,Faria Lemos,1.224,-20.7942,-42,Hydro,4.662303228
BRA,Brazil,Faria Lima Square,1.44,-23.5839,-46.6728,Oil,6.159427667
BRA,Brazil,Farias,1.35,-19.067,-42.8092,Hydro,5.142246207
BRA,Brazil,Farol,20,-5.097,-36.0204,Wind,23.71647314
BRA,Brazil,Faxinal II,30,-10.1622,-59.4578,Hydro,114.2721379
BRA,Brazil,Faxinal dos Guedes,4,-26.7636,-52.2183,Hydro,15.23628506
BRA,Brazil,Faxinal l,2.788,-10.1648,-59.4466,Hydro,10.61969069
BRA,Brazil,Fazenda Rosário,9.2,-30.4469,-50.3888,Wind,10.90957764
BRA,Brazil,Fazenda Rosário 2,23,-30.4398,-50.4053,Wind,27.27394411
BRA,Brazil,Fazenda Rosário 3,16.1,-30.4525,-50.4226,Wind,19.09176088
BRA,Brazil,Fazenda Velha,16.5,-17.968,-51.7613,Hydro,62.84967586
BRA,Brazil,Faísa I,29.4,-3.3218,-39.2671,Wind,34.86321551
BRA,Brazil,Faísa II,27.3,-3.3188,-39.2396,Wind,32.37298583
BRA,Brazil,Faísa III,25.2,-3.3478,-39.2652,Wind,29.88275615
BRA,Brazil,Faísa IV,25.2,-3.3221,-39.2671,Wind,29.88275615
BRA,Brazil,Faísa V,29.4,-3.3699,-39.2621,Wind,34.86321551
BRA,Brazil,Feijó,4.8864,-8.1713,-70.3496,Oil,20.90099122
BRA,Brazil,Feijó  CEA,5.875,-8.1639,-70.3539,Oil,25.12960941
BRA,Brazil,Feixos,1.3,-22.6975,-46.8512,Hydro,4.951792644
BRA,Brazil,Fernando Gasparian (Antiga Nova Piratininga),386.08,-23.6949,-46.6691,Gas,2773.473651
BRA,Brazil,Ferradura,9.2,-27.5594,-53.5767,Hydro,35.04345563
BRA,Brazil,Ferrari,80.5,-21.8411,-47.3514,Biomass,288.2723798
BRA,Brazil,Ferreira Gomes,252,0.852,-51.2,Hydro,959.8859586
BRA,Brazil,Fibrasa,1.44,-7.9077,-34.8933,Oil,6.159427667
BRA,Brazil,Fibrasa Embalagens,1.1,-20.1246,-40.2983,Oil,4.705118357
BRA,Brazil,Fibrasa Nordeste,1.92,-7.9077,-34.8933,Oil,8.212570223
BRA,Brazil,Fibria - MS (Antiga VCP - MS),163.2,-20.751,-51.678,Biomass,584.4230109
BRA,Brazil,Figueira,20,-23.8482,-50.3808,Coal,191.5871102
BRA,Brazil,Figueira Indústria e Comércio,4.4,-21.111,-50.2236,Biomass,15.75650274
BRA,Brazil,Figueirópolis,19.41,-15.3926,-58.6378,Hydro,73.93407324
BRA,Brazil,Fischer,5,-22.5136,-47.3723,Biomass,17.90511676
BRA,Brazil,Fleixeiras I,30.004,-3.2011,-39.3647,Wind,35.579453
BRA,Brazil,Flor do Mato,4.8,-26.8481,-51.8794,Hydro,18.28354207
BRA,Brazil,Flor do Sertão,16.5,-26.7877,-53.3942,Hydro,62.84967586
BRA,Brazil,Floraplac,1.25,-3.1995,-47.5937,Biomass,4.476279189
BRA,Brazil,Flores,80,-3.0707,-60.0144,Oil,342.1904259
BRA,Brazil,Flórida Clean Power do Amapá,1.7,0.0408,-51.1351,Biomass,6.087739697
BRA,Brazil,Fonte Boa,5.12,-2.5202,-66.0291,Oil,21.90018726
BRA,Brazil,Fontes Nova,130.3,-22.7031,-43.8814,Hydro,496.3219858
BRA,Brazil,Forquilha,1,-27.6667,-51.7333,Hydro,3.809071264
BRA,Brazil,Fortaleza,326.601,-3.6771,-38.8566,Gas,2346.195783
BRA,Brazil,Fortlev Sul,2.2,-26.4579,-48.7487,Oil,9.410236714
BRA,Brazil,Foz do Chapecó,855,-27.1417,-53.0397,Hydro,3256.755931
BOL,Bolivia,Chojlla Hydroelectric Power Plant Bolivia,38.4,-16.4124,-67.7725,Hydro,192.4702739
BRA,Brazil,Alterosa,8,-19.8563,-44.5989,Oil,34.21904259
BOL,Bolivia,Chururaqui Hydroelectric Power Plant Bolivia,34,-16.105,-68.067,Hydro,170.4163883
BOL,Bolivia,Corani Hydroelectric Power Plant Bolivia,54,-17.2122,-65.8758,Hydro,270.6613226
BRA,Brazil,Alto Benedito Novo,2.544,-26.7819,-49.3972,Hydro,9.690277297
BOL,Bolivia,Cutichucho Hydroelectric Power Plant Bolivia,24,-16.1425,-68.1158,Hydro,120.2939212
BRA,Brazil,Casca III,12.42,-15.3576,-55.4553,Hydro,47.3086651
BRA,Brazil,Aura Mangueira XIII,15,-33.079,-52.8855,Wind,17.78735485
BOL,Bolivia,El Alto (El Kenko) Power Plant Bolivia,80.42,-16.5653,-68.1811,Gas,467.8226728
BRA,Brazil,Cucaú,12.6,-8.6369,-35.2617,Biomass,45.12089422
BRA,Brazil,Boa Vista do Ramos,2.062,-2.9649,-57.5786,Oil,8.819958229
BRA,Brazil,Coelhos IV,4.8,-6.5814,-34.9747,Wind,5.691953553
BRA,Brazil,Cascata,6,-26.5889,-51.7427,Wind,7.114941941
BRA,Brazil,Cascata Chupinguaia,9.6,-12.7139,-60.8717,Hydro,36.56708414
BRA,Brazil,Cascata das Andorinhas,1.2,-27.35,-52.7667,Hydro,4.570885517
BRA,Brazil,Castaman I (Antiga Enganado),1.844,-13.0839,-60.6222,Hydro,7.023927412
BRA,Brazil,Castaman III,1.48,-13.1517,-60.6567,Hydro,5.637425471
BRA,Brazil,Castelo Branco Office Park,2.025,-23.5066,-46.8666,Oil,8.661695157
BRA,Brazil,Castro Alves,130.845,-29.0083,-51.3792,Hydro,498.3979296
BRA,Brazil,Catanduva,9,-21.1254,-48.8248,Biomass,32.22921016
BRA,Brazil,Catanduva (Antiga Cerradinho),75,-21.0966,-48.9335,Biomass,268.5767513
BRA,Brazil,Catas Altas I,4,-24.5972,-49.135,Hydro,15.23628506
BRA,Brazil,Caterpillar,11.48,-22.7033,-47.6246,Oil,49.10432612
BRA,Brazil,Catuai Shopping Center Londrina,2.8992,-29.1742,-51.2178,Oil,12.40098104
BRA,Brazil,Caucaia,14.76,-3.7327,-38.6434,Oil,63.13413359
BRA,Brazil,Caveiras,3.829,-27.8156,-50.4803,Hydro,14.58493387
BRA,Brazil,Alto Benedito Novo I,15,-26.7667,-49.4333,Hydro,57.13606897
BRA,Brazil,Cavernoso,1.26,-25.4936,-52.2128,Hydro,4.799429793
BRA,Brazil,Cavernoso II,19.008,-25.4933,-52.225,Hydro,72.4028266
BRA,Brazil,Cazuza Ferreira,9.1,-29.0167,-50.7167,Hydro,34.66254851
BRA,Brazil,Caçador,22.5,-28.7055,-51.8506,Hydro,85.70410345
BRA,Brazil,Caçu,65,-18.5294,-51.15,Hydro,247.5896322
BRA,Brazil,Caçú I,130,-18.6013,-51.1913,Biomass,465.5330356
BRA,Brazil,Ceasa-PE,1.6,-8.0668,-34.9225,Oil,6.843808519
BRA,Brazil,Cebrace Barra Velha,2.7528,-26.6347,-48.7047,Oil,11.77477256
BRA,Brazil,Cebrace Caçapava,4,-23.1314,-45.7531,Oil,17.1095213
BRA,Brazil,Cebrace Jacarei,2.4,-23.2847,-45.9417,Oil,10.26571278
BRA,Brazil,Cedasa,3.567,-22.453,-47.5205,Oil,15.25741562
BRA,Brazil,Celpav II,32.6,-21.5487,-47.7725,Oil,139.4425986
BRA,Brazil,Celpav IV,139.424,-23.2949,-45.981,Gas,1001.57685
BRA,Brazil,Celso Furtado (Antiga Termobahia Fase I),185.891,-12.7038,-38.5669,Gas,1335.380726
BRA,Brazil,Celso Ramos,5.6,-26.7578,-52.2578,Hydro,21.33079908
BRA,Brazil,Celulose Irani,4.9,-26.9416,-51.7466,Biomass,17.54701442
BRA,Brazil,Cencosud - GBarbosa - 153,1,-12.9159,-38.4431,Oil,4.277380324
BRA,Brazil,Cencosud - GBarbosa - 31,1.44,-12.9792,-38.4697,Oil,6.159427667
BRA,Brazil,Cencosud - GBarbosa - 35,1.08,-12.9914,-38.4486,Oil,4.61957075
BRA,Brazil,Cencosud - GBarbosa - 6,1.08,-10.9414,-37.0581,Oil,4.61957075
BRA,Brazil,Cencosud - GBarbosa - 81,1.08,-9.6312,-35.6999,Oil,4.61957075
BRA,Brazil,Cencosud - GBarbosa - 84,1.08,-9.6489,-35.7058,Oil,4.61957075
BRA,Brazil,Cencosud - M. Rodrigues - 10,1.2,-12.9006,-38.3326,Oil,5.132856389
BRA,Brazil,Cencosud - M. Rodrigues - 607,1.2,-9.4253,-40.5055,Oil,5.132856389
BRA,Brazil,Cencosud - M. Rodrigues - 806,1.2,-10.9386,-37.0828,Oil,5.132856389
BRA,Brazil,Cenibra,100,-19.216,-42.4745,Biomass,358.1023351
BRA,Brazil,Center Shopping Uberlândia,2.1792,-18.91,-48.2594,Oil,9.321267203
BRA,Brazil,Central Energética Ribeirão Preto (Antiga Galo Bravo),9,-21.1112,-47.8166,Biomass,32.22921016
BRA,Brazil,Central GH Engenheiro Bernardo Figueiredo,2.25,-22.7392,-46.9075,Hydro,8.570410345
BRA,Brazil,Central I,1.557,-26.9197,-50.4114,Hydro,5.930723959
BRA,Brazil,Central Mineirão,1.4184,-19.8656,-43.9711,Solar,0
BRA,Brazil,Central Olho D Água,25,-7.4176,-35.2441,Biomass,89.52558378
BRA,Brazil,Central Termelétrica de Geração (Antiga Forjasul),1.8,-30.54,-52.5125,Biomass,6.445842032
BRA,Brazil,Central de Cogeração Shopping Caxias,1.3,-22.7818,-43.3025,Gas,9.338778872
BRA,Brazil,Centro Administrativo Farroupilha,1.041,-30.029,-51.2205,Oil,4.452752918
BRA,Brazil,Centro Oeste Iguatemi,4,-23.1627,-54.3845,Biomass,14.3240934
BRA,Brazil,Cepasa,5,-8.1096,-35.0039,Biomass,17.90511676
BRA,Brazil,Cerradão,54,-19.9183,-49.1458,Biomass,193.375261
BRA,Brazil,Cerro Chato I (Antiga Coxilha Negra V),30,-30.8407,-55.7251,Wind,35.57470971
BRA,Brazil,Cerro Chato II (Antiga Coxilha Negra VI),30,-30.8485,-55.6856,Wind,35.57470971
BRA,Brazil,Cerro Chato III (Antiga Coxilha Negra VII),30,-30.8018,-55.7142,Wind,35.57470971
BRA,Brazil,Cerro Chato IV,10,-30.8327,-55.7558,Wind,11.85823657
BRA,Brazil,Cerro Chato V,12,-30.7957,-55.7556,Wind,14.22988388
BRA,Brazil,Cerro Chato VI,24,-30.783,-55.6906,Wind,28.45976777
BRA,Brazil,Cerro dos Trindade,8,-30.8512,-55.7527,Wind,9.486589255
BRA,Brazil,Cervejaria Petrópolis,4.352,-22.31,-42.8644,Oil,18.61515917
BRA,Brazil,Cervejaria Petrópolis - Alagoinhas,3.1056,-12.0843,-38.3436,Oil,13.28383234
BRA,Brazil,Cervejatia Petrópolis - Itapissuma,3.1056,-7.7943,-34.9166,Oil,13.28383234
BRA,Brazil,Cerâmica Urussanga,2.448,-28.5308,-49.3094,Oil,10.47102703
BRA,Brazil,Cerâmicos Fortaleza,1.92,-22.407,-47.5515,Oil,8.212570223
BRA,Brazil,Cesar Filho,7,-12.2698,-61.1862,Hydro,26.66349885
BRA,Brazil,Cesar Park Business Hotel/Globenergy,2.1,-23.459,-46.5235,Gas,15.08571972
BRA,Brazil,Cevasa,54,-20.7478,-47.4218,Biomass,193.375261
BRA,Brazil,Chaminé,18,-25.8153,-49.0606,Hydro,68.56328276
BRA,Brazil,Chapadão Agroenergia,92,-21.1994,-50.1965,Biomass,329.4541483
BRA,Brazil,Chavantes,414,-23.1286,-49.7314,Hydro,1576.955503
BRA,Brazil,Chibarro,2.6,-21.8881,-48.1472,Hydro,9.903585288
BRA,Brazil,Chris Cintos,4,-23.6461,-46.6386,Oil,17.1095213
BRA,Brazil,Chupinguaia,5.41,-12.5333,-60.8889,Oil,23.14062755
BRA,Brazil,Chupinguaia,1.27,-12.5694,-60.8928,Hydro,4.837520506
BRA,Brazil,Chuí 09,17.9,-33.6875,-53.381,Wind,21.22624346
BRA,Brazil,Chuí I,24,-33.6565,-53.3936,Wind,28.45976777
BRA,Brazil,Chuí II,22,-33.6594,-53.4003,Wind,26.08812045
BRA,Brazil,Chuí IV,22,-33.6647,-53.4164,Wind,26.08812045
BRA,Brazil,Chuí V,30,-33.6681,-53.4218,Wind,35.57470971
BRA,Brazil,Cia Minuano,1.016,-29.3584,-51.9556,Oil,4.34581841
BRA,Brazil,Cia de Alimentos Ibituruna,2,-18.7794,-41.9541,Oil,8.554760649
BRA,Brazil,Cidade Nova,15.6,-3.0241,-59.9592,Oil,66.72713306
BRA,Brazil,Cidezal,17,-13.37,-59.0126,Hydro,64.7542115
BRA,Brazil,Citrosuco,7,-21.5947,-48.3636,Biomass,25.06716346
BRA,Brazil,Citrosuco,2.3,-22.5945,-47.3542,Oil,9.837974746
BRA,Brazil,Citrovita Catanduva,19.824,-21.134,-48.9635,Biomass,70.99020691
BRA,Brazil,Clealco Clementina,11.2,-21.578,-50.4216,Biomass,40.10746153
BRA,Brazil,Clealco Queiroz,45,-21.8503,-50.2472,Biomass,161.1460508
BRA,Brazil,Coaracy Nunes,76.952,0.9031,-51.2592,Hydro,293.1156519
BRA,Brazil,Cocais Grande,10,-19.5319,-42.7672,Hydro,38.09071264
BRA,Brazil,Cocal,28.2,-22.47,-50.7793,Biomass,100.9848585
BRA,Brazil,Cocal II,131.3,-22.5268,-51.494,Biomass,470.188366
BRA,Brazil,Cocamar Maringá,13,-23.4303,-51.9774,Biomass,46.55330356
BRA,Brazil,Codajás,3.656,-3.8366,-62.053,Gas,26.26351966
BRA,Brazil,Codora,48,-15.2714,-49.158,Biomass,171.8891209
BRA,Brazil,Cuiabá (Antga Mário Covas),529.2,-15.596,-56.097,Gas,3801.601368
BRA,Brazil,Culuene,1.794,-14.6333,-53.9333,Hydro,6.833473848
BRA,Brazil,Cofercatu,4,-22.8892,-51.3931,Biomass,14.3240934
BRA,Brazil,Curemas,3.52,-7.0167,-37.9667,Hydro,13.40793085
BRA,Brazil,Curuá-Una,30.3,-2.8117,-54.2989,Hydro,115.4148593
BRA,Brazil,Córrego Santa Cruz,1,-12.6456,-58.3189,Hydro,3.809071264
BRA,Brazil,D,1.36,-20.1169,-43.8681,Hydro,5.18033692
BRA,Brazil,DHB Componentes Automotivos (Unidade 1),1.016,-30.0914,-51.1556,Oil,4.34581841
BRA,Brazil,DHB Componentes Automotivos (Unidade 2),2.032,-30.0914,-51.1556,Oil,8.691636819
BRA,Brazil,DTCEA-MN,1,-3.1423,-59.9705,Oil,4.277380324
BRA,Brazil,DVPA,28,-17.1171,-46.6541,Biomass,100.2686538
BRA,Brazil,Da Fazenda,27,-10.3303,-56.9814,Hydro,102.8449241
BRA,Brazil,Da Ilha,26,-28.8833,-51.45,Hydro,99.03585288
BRA,Brazil,Da Mata,40,-21.3255,-50.9456,Biomass,143.240934
BRA,Brazil,Da Pedra,70,-21.1706,-47.6205,Biomass,250.6716346
BRA,Brazil,Da Prata,21.84,-13.9643,-42.6389,Wind,25.89838867
BRA,Brazil,Dacal,4.4,-21.9106,-50.856,Biomass,15.75650274
BRA,Brazil,Boca do Acre,11.3,-8.7641,-67.3094,Oil,48.33439767
BRA,Brazil,Foz do Rio Choró,25.2,-4.1256,-38.1503,Wind,29.88275615
BRA,Brazil,Alto Brejaúba,1.35,-18.9011,-42.446,Hydro,5.142246207
BRA,Brazil,Aura Mangueira XV,18,-33.142,-52.9626,Wind,21.34482582
BOL,Bolivia,Entre Rios Power Plant Bolivia,120,-21.52,-64.1714,Gas,698.0691462
BRA,Brazil,Dacalda,6,-23.1569,-50.0936,Biomass,21.48614011
BRA,Brazil,Daia,44.44,-16.398,-48.9344,Oil,190.0867816
BRA,Brazil,Dakota Calçados,1.095,-10.7343,-37.8016,Oil,4.683731455
BRA,Brazil,Dalapria,1.44,-26.7961,-52.1367,Hydro,5.485062621
BRA,Brazil,Dalba,1,-25.2817,-51.877,Hydro,3.809071264
BRA,Brazil,Damascena,30,-11.8567,-41.4742,Wind,35.57470971
BRA,Brazil,Dardanelos,261,-10.1633,-59.4642,Hydro,994.1676
BRA,Brazil,Dasa,4.2,-17.8335,-40.1786,Biomass,15.04029807
BRA,Brazil,Decasa,33,-22.7623,-50.1025,Biomass,118.1737706
BRA,Brazil,Della Coletta,4,-22.0536,-48.7021,Biomass,14.3240934
BRA,Brazil,Delta,101.875,-19.9716,-47.7589,Biomass,364.8167539
BRA,Brazil,Delta do Parnaíba,30,-2.8318,-41.7136,Wind,35.57470971
BRA,Brazil,Derivação do Rio Jordão,6.5,-25.7589,-52.0869,Hydro,24.75896322
BRA,Brazil,Destil,3.4,-21.2515,-49.1283,Biomass,12.17547939
BRA,Brazil,Destilaria Guaricanga,1.6,-22.0541,-49.3107,Biomass,5.729637362
BRA,Brazil,Destilaria Malosso,4,-21.6237,-48.821,Biomass,14.3240934
BRA,Brazil,Destilaria Melhoramentos,18.38,-23.5612,-52.4182,Biomass,65.81920919
BRA,Brazil,Destilaria Paraguaçu,3.6,-22.4618,-50.4825,Biomass,12.89168406
BRA,Brazil,Destilaria Porto Alegre,2.4,-8.8935,-35.6571,Biomass,8.594456043
BRA,Brazil,Destilaria de Álcool Ibaiti,3.6,-23.6782,-50.4048,Biomass,12.89168406
BRA,Brazil,Destivale,5,-21.114,-50.4543,Biomass,17.90511676
BRA,Brazil,Diacal II,5.04,-11.7403,-46.7525,Hydro,19.19771917
BRA,Brazil,Diamante,7,-22.3657,-48.6834,Biomass,25.06716346
BRA,Brazil,Diamante (Antiga Camargo Corrêa),4.23,-14.3464,-56.7947,Hydro,16.11237145
BRA,Brazil,Diana,2.873,-21.3973,-49.884,Biomass,10.28828009
BRA,Brazil,Dianópolis,5.5,-11.4661,-46.8189,Hydro,20.94989195
BRA,Brazil,Distribuidora Amaral,1.5,-20.1197,-44.9212,Oil,6.416070487
BRA,Brazil,Distrito - Bloco Soenergy,21.32,2.7617,-60.7247,Oil,91.19374852
BRA,Brazil,Divino,1.251,-20.6994,-42.075,Hydro,4.765148152
BRA,Brazil,Divisa,10.8,-13.3631,-59.1419,Hydro,41.13796966
BRA,Brazil,Do Atlântico,490,-22.9096,-43.7297,Oil,2095.916359
BRA,Brazil,Doce Mineiro,2.24,-18.7541,-49.2632,Oil,9.581331927
BRA,Brazil,Doido,6,-11.7098,-46.7563,Hydro,22.85442759
BRA,Brazil,Dois Córregos,3.6,-22.3348,-48.3971,Biomass,12.89168406
BRA,Brazil,Dois Riachos,30,-11.8225,-41.4591,Wind,35.57470971
BRA,Brazil,Dois Vizinhos,1.98,-25.73,-53.0475,Biomass,7.090426235
BRA,Brazil,Dona Francisca,125,-29.4496,-53.2857,Hydro,476.1339081
BRA,Brazil,Dona Maria Piana,1,-29.2,-51.25,Hydro,3.809071264
BRA,Brazil,Dori Alimentos,3.75,-22.1743,-49.9736,Oil,16.04017622
BRA,Brazil,Dos Araçás,31.86,-14.1296,-42.5597,Wind,37.78034171
BRA,Brazil,Dourados,10.8,-20.65,-47.6833,Hydro,41.13796966
BRA,Brazil,Dourados,28.56,-14.1523,-42.6816,Wind,33.86712364
BRA,Brazil,Dreen Boa Vista,14,-5.1106,-35.9279,Wind,16.6015312
BRA,Brazil,Dreen Olho D Água,30,-5.0545,-35.9687,Wind,35.57470971
BRA,Brazil,Dreen São Bento do Norte,30,-5.053,-35.9784,Wind,35.57470971
BRA,Brazil,Dulcini,1.8512,-22.6107,-46.9245,Biomass,6.629190428
BRA,Brazil,Dunas de Paracuru,42,-3.4367,-38.9854,Wind,49.80459359
BRA,Brazil,Durandé,3,-20.0797,-41.7336,Hydro,11.42721379
BRA,Brazil,E,1.4,-20.1167,-43.8858,Hydro,5.33269977
BRA,Brazil,E Nova,2.744,-20.1258,-43.9502,Hydro,10.45209155
BRA,Brazil,EMPRESA DE MINERAÇÃO ESPERANÇA S A - EMESA,3.12,-20.117,-44.2141,Oil,13.34542661
BRA,Brazil,ENGEFLEX BAHIA,3.648,-14.8621,-40.83,Oil,15.60388342
BRA,Brazil,ERB Candeias,16.79,-12.763,-38.4718,Biomass,60.12538207
BRA,Brazil,ESPIGÃO I,3.5872,-2.5896,-43.1995,Gas,25.76928275
BRA,Brazil,ETA006,1.12,-10.2875,-48.2956,Oil,4.790665963
BRA,Brazil,ETERNIT RIO DE JANEIRO,1.524,-22.8349,-43.3605,Oil,6.518727614
BRA,Brazil,Ecoluz,12.33,-25.3893,-51.4458,Biomass,44.15401792
BRA,Brazil,Edifício Odebrecht,1.3,-23.5678,-46.6939,Oil,5.560594422
BRA,Brazil,Edifício Rochaverá,5.47,-23.544,-46.6265,Oil,23.39727037
BRA,Brazil,Edifício Sky,1.3,-23.6461,-46.6386,Gas,9.338778872
BRA,Brazil,Editora o Dia,3.3,-22.899,-43.1985,Oil,14.11535507
BRA,Brazil,Egídio,2,-10.314,-58.3495,Biomass,7.162046702
BRA,Brazil,Eirunepé,6.33,-6.6566,-69.8666,Oil,27.07581745
BRA,Brazil,Eldorado,141.019,-21.8514,-54.0159,Biomass,504.992332
BRA,Brazil,Eldorado Brasil,226,-20.5957,-51.5975,Biomass,809.3112774
BRA,Brazil,Electron (TG),120,-3.121,-59.9186,Oil,513.2856389
BRA,Brazil,Elekeiroz,8.988,-23.2038,-46.8144,Oil,38.44509436
BRA,Brazil,Elektro 4UGs,1.656,-22.9927,-47.0976,Oil,7.083341817
BRA,Brazil,Eloy Chaves,19,-22.7,-47.2833,Hydro,72.37235402
BRA,Brazil,Ematex,1.247,-19.7756,-44.0626,Oil,5.333893264
BRA,Brazil,Embaúba,4.5,-15.9825,-55.0828,Hydro,17.14082069
BRA,Brazil,Emborcação,1192,-18.4519,-47.9859,Hydro,4540.412947
BRA,Brazil,Embuaca,27.3,-3.2147,-39.3288,Wind,32.37298583
BRA,Brazil,Emiliana,28.2,-13.91,-42.6242,Wind,33.44022712
BRA,Brazil,Enacel,31.5,-4.5099,-37.7607,Wind,37.35344519
BRA,Brazil,Energia Madeiras,4,-26.1852,-50.3597,Biomass,14.3240934
BRA,Brazil,Energy Green,5,-24.9522,-50.1,Biomass,17.90511676
BRA,Brazil,Energy Works Kaiser Pacatuba,5.552,-3.98,-38.6105,Gas,39.88376946
BRA,Brazil,EnergyWorks Corn Products Balsa,9.199,-25.58,-49.6265,Gas,66.08263603
BRA,Brazil,EnergyWorks Corn Products Mogi,30.775,-22.368,-46.9325,Gas,221.0776306
BRA,Brazil,Energética Itajubara,4.4,-4.2788,-42.9783,Biomass,15.75650274
BRA,Brazil,Energética Santa Helena,3.2,-21.9943,-53.4155,Biomass,11.45927472
BRA,Brazil,Enervale,30,-17.0598,-46.1705,Biomass,107.4307005
BRA,Brazil,Cogeracao Diesel - Cargilll de Castro Pr,1.80115,-24.7758,-49.8856,Oil,7.704203571
BOL,Bolivia,Guaracachi CCGT Power Plant Bolivia,350,-17.7875,-63.1521,Gas,2036.03501
BRA,Brazil,Alto Fêmeas I,10.649,-12.45,-45.2,Hydro,40.5627999
BOL,Bolivia,Harca Hydroelectric Power Plant Bolivia,30,-16.0784,-68.0336,Hydro,150.3674015
BRA,Brazil,Franca Amaral,4.5,-21.0537,-41.72,Hydro,17.14082069
BRA,Brazil,Aura Mirim IV,15,-33.0511,-52.9371,Wind,17.78735485
BRA,Brazil,Boca do Córrego,24.3,-3.0984,-39.6663,Wind,28.81551486
BRA,Brazil,Cogeração De Millus Av. Brasil,3.69926,-22.9192,-43.4408,Gas,26.57428548
BRA,Brazil,Bocaiúva,30,-12.5303,-57.8808,Hydro,114.2721379
BRA,Brazil,Aureliano Chaves (Antiga Ibirité),226,-19.9866,-44.0889,Gas,1623.510789
BRA,Brazil,Alto Irani,21,-27.0094,-52.4303,Hydro,79.99049655
BRA,Brazil,Autazes,6.042,-3.5755,-59.1233,Oil,25.84393192
BRA,Brazil,Bom Jardim,30,-28.4403,-49.5703,Wind,35.57470971
BRA,Brazil,Cogeração International Paper - Fases I e II,50.5,-22.3563,-46.9605,Oil,216.0077064
BRA,Brazil,Francisco Gross (Antiga Santa Fé),29,-20.7,-41.5167,Hydro,110.4630667
BOL,Bolivia,Huaji Hydroelectric Power Plant Bolivia,34,-16.0416,-67.9566,Hydro,170.4163883
BRA,Brazil,Coinbra - Frutesp,5,-20.9295,-48.5072,Biomass,17.90511676
BRA,Brazil,Bom Jesus,3.2,-8.2781,-35.0286,Biomass,11.45927472
BRA,Brazil,Frango Sertanejo,4.944,-20.791,-49.2105,Oil,21.14736832
BOL,Bolivia,Karachipampa Power Plant Bolivia,14.4,-19.551,-65.722,Gas,83.76829755
BRA,Brazil,Autódromo,24,-28.8258,-51.8414,Hydro,91.41771035
BRA,Brazil,França,29.52,-23.9406,-47.1944,Hydro,112.4437837
BRA,Brazil,Alto Jatapu,5,0.9,-59.3333,Hydro,19.04535632
BRA,Brazil,Coinbra - Frutesp,8,-21.6335,-48.3421,Biomass,28.64818681
BRA,Brazil,Bom Retiro,3.6,-22.8693,-47.444,Biomass,12.89168406
BRA,Brazil,Avelar,1,-22.2939,-43.4181,Hydro,3.809071264
BRA,Brazil,Colino 1,11,-17.0778,-40.0853,Hydro,41.89978391
BOL,Bolivia,Sainani Hydroelectric Power Plant Bolivia,11,-16.124,-68.09,Hydro,55.13471387
BRA,Brazil,Frascal,2.2,-26.9564,-50.4889,Hydro,8.379956782
BRA,Brazil,Alto Paraguai (Pedro Pedrossian),1.68,-14.5069,-56.4025,Hydro,6.399239724
BOL,Bolivia,Santa Cruz Power Plant Bolivia,42.3,-17.7549,-63.1398,Gas,246.069374
BRA,Brazil,Frederico João Cerutti SA,1.2,-27.5103,-53.4253,Hydro,4.570885517
BRA,Brazil,Açominas,102.89,-20.5355,-43.6986,Coal,985.6198886
BRA,Brazil,Colino 2,16,-17.0725,-40.1047,Hydro,60.94514023
BOL,Bolivia,Santa Isabel Hydroelectric Power Plant Bolivia,93.4,-17.1916,-65.8232,Hydro,468.1438432
BRA,Brazil,Alto Sucuriú,29,-19.245,-52.8994,Hydro,110.4630667
BRA,Brazil,Bom Sucesso,1.5,-18.0145,-49.7824,Biomass,5.371535027
BOL,Bolivia,Santa Rosa Hydroelectric Power Plant Bolivia,18,-16.1318,-68.1095,Hydro,90.22044088
BRA,Brazil,BASF ANC,1,-23.6832,-46.5575,Oil,4.277380324
BRA,Brazil,Colombo Ariranha,105.5,-21.2116,-48.8296,Biomass,377.7979635
BRA,Brazil,Bompreço Fortaleza,1.12,-3.7132,-38.5336,Oil,4.790665963
BRA,Brazil,Altos,13.12,-5.0321,-42.4358,Oil,56.11922986
BRA,Brazil,Frigobet,1.56,-19.9437,-44.1898,Oil,6.672713306
BOL,Bolivia,Tiquimani Hydroelectric Power Plant Bolivia,9.6,-16.2072,-68.1235,Hydro,48.11756847
